[
    {
        "name": "La L\u00e9gende",
        "address": "100 Rue Legendre, 75017 Paris",
        "latitude": 48.887704,
        "longitude": 2.3204309
    },
    {
        "name": "La Fine Mousse",
        "address": "6 Avenue Jean Aicard, 75011 Paris",
        "latitude": 48.8648522,
        "longitude": 2.381758
    },
    {
        "name": "Le Supercoin",
        "address": "3 Rue Baudelique, 75018 Paris",
        "latitude": 48.892255,
        "longitude": 2.346987
    },
    {
        "name": "Le Red House",
        "address": "1 Rue de la Forge Royale, 75011 Paris",
        "happyHour": "18:00",
        "latitude": 48.851259,
        "longitude": 2.3803875
    },
    {
        "name": "Le Calbar",
        "address": "82 Rue de Charenton, 75012 Paris",
        "latitude": 48.8486738,
        "longitude": 2.375342
    },
    {
        "name": "Nul Bar Ailleurs",
        "address": "18 Rue de Cotte, 75012 Paris",
        "happyHour": "17:00",
        "latitude": 48.8499239,
        "longitude": 2.378082
    },
    {
        "name": "Demory",
        "address": "62 Rue Quincampoix, 75004 Paris",
        "happyHour": "18:00",
        "latitude": 48.8616762,
        "longitude": 2.3508801
    },
    {
        "name": "Pop In",
        "address": "105 Rue Amelot, 75011 Paris",
        "happyHour": "18:30",
        "latitude": 48.8614065,
        "longitude": 2.3675788
    },
    {
        "name": "My Little Pub",
        "address": "10 Rue de Port Mahon, 75002 Paris",
        "happyHour": "17:00",
        "latitude": 48.8696464,
        "longitude": 2.3340805
    },
    {
        "name": "Panic Room",
        "address": "101 Rue Amelot, 75011 Paris",
        "latitude": 48.8612458,
        "longitude": 2.3676234
    },
    {
        "name": "CopperBay",
        "address": "5 Rue Bouchardon, 75010",
        "latitude": 48.8698469,
        "longitude": 2.3571238
    },
    {
        "name": "Shake N'Smash",
        "address": "87 Rue de Turbigo, 75003 Paris",
        "latitude": 48.8667351,
        "longitude": 2.361243
    },
    {
        "name": "The Bootleg Bar",
        "address": "55 Rue de la Roquette, 75011 Paris",
        "happyHour": "17:00",
        "latitude": 48.8559825,
        "longitude": 2.3754709
    },
    {
        "name": "Le Violon Dingue",
        "address": "46 Rue de la Montagne Sainte Genevi\u00e8ve, 75005 Paris",
        "latitude": 48.8476222,
        "longitude": 2.3484593
    },
    {
        "name": "Aux Ours",
        "address": "236 Rue des Pyr\u00e9n\u00e9es, 75020 Paris",
        "happyHour": "17:00",
        "latitude": 48.8674762,
        "longitude": 2.3966167
    },
    {
        "name": "Au Clair de Lune",
        "address": "1 Rue Ramey, 75018 Paris",
        "happyHour": "18:00",
        "latitude": 48.88698585,
        "longitude": 2.347419835210853
    },
    {
        "name": "L'Imprimerie",
        "address": "29 Rue Coquilli\u00e8re, 75001 Paris",
        "happyHour": "17:00",
        "latitude": 48.8641421,
        "longitude": 2.3416105
    },
    {
        "name": "M\u00e9cano Bar",
        "address": "99 Rue Oberkampf, 75011 Paris",
        "happyHour": "16:00",
        "latitude": 48.866723,
        "longitude": 2.3817382
    },
    {
        "name": "Le Caf\u00e9 du Commerce",
        "address": "13 Rue de Clignancourt, 75018 Paris",
        "happyHour": "16:00",
        "latitude": 48.8847692,
        "longitude": 2.347114
    },
    {
        "name": "Caf\u00e9 des 2 Moulins",
        "address": "15 Rue Lepic, 75018 Paris",
        "happyHour": "18:00",
        "latitude": 48.8848988,
        "longitude": 2.3337032
    },
    {
        "name": "La Perla",
        "address": "26 Rue Fran\u00e7ois Miron, 75004 Paris",
        "happyHour": "17:00",
        "latitude": 48.855793,
        "longitude": 2.3561201
    },
    {
        "name": "My Baar",
        "address": "152 Boulevard du Montparnasse, 75014 Paris",
        "happyHour": "15:00",
        "latitude": 48.8396312,
        "longitude": 2.3366719
    },
    {
        "name": "Dream Caf\u00e9 - Martyrs",
        "address": "8 Rue des Martyrs, 75009 Paris",
        "happyHour": "17:00",
        "latitude": 48.8770827,
        "longitude": 2.3393889
    },
    {
        "name": "Dream Caf\u00e9 - Montparnasse",
        "address": "39 Boulevard du Montparnasse, 75006 Paris",
        "happyHour": "17:00",
        "latitude": 48.8419005,
        "longitude": 2.3300746
    },
    {
        "name": "Le Trucmush",
        "address": "5 Passage Thi\u00e9r\u00e9, 75011 Paris",
        "latitude": 48.8535364,
        "longitude": 2.3745159
    },
    {
        "name": "L'Assommoir",
        "address": "37 Rue Rodier, 75009 Paris",
        "latitude": 48.8796155,
        "longitude": 2.3433684
    },
    {
        "name": "La Malle",
        "address": "3 Rue Rodier, 75009 Paris",
        "latitude": 48.8772077,
        "longitude": 2.3421958
    },
    {
        "name": "Le Kanon",
        "address": "9 Rue du G\u00e9n\u00e9ral Lanrezac, 75017 Paris",
        "happyHour": "16:00",
        "latitude": 48.8764898,
        "longitude": 2.29412
    },
    {
        "name": "Les Caract\u00e8res",
        "address": "25 Rue des Grands Augustins, 75006 Paris",
        "happyHour": "18:00",
        "latitude": 48.853803,
        "longitude": 2.3403816
    },
    {
        "name": "Social Bar",
        "address": "25 Rue Villiot, 75012 Paris",
        "latitude": 48.8418037,
        "longitude": 2.3755198
    },
    {
        "name": "Bar & Beer",
        "address": "48 Boulevard de M\u00e9nilmontant, 75020 Paris",
        "happyHour": "16:00",
        "latitude": 48.8640934,
        "longitude": 2.386216
    },
    {
        "name": "L'Antre Potes",
        "address": "178 Rue du Faubourg Saint-Antoine, 75012 Paris",
        "latitude": 48.8520337,
        "longitude": 2.3732022
    },
    {
        "name": "Station Service Caf\u00e9",
        "address": "117 Rue Saint-Maur, 75011 Paris",
        "happyHour": "17:00",
        "latitude": 48.8662965,
        "longitude": 2.3766716
    },
    {
        "name": "Margen's Pub",
        "address": "65 Rue Mouffetard, 75005 Paris",
        "happyHour": "16:00",
        "latitude": 48.8424731,
        "longitude": 2.3497976
    },
    {
        "name": "Le Cristal",
        "address": "163 Avenue de Suffren, 75015 Paris",
        "happyHour": "18:00",
        "latitude": 48.8457423,
        "longitude": 2.3099015
    },
    {
        "name": "Le Pub 27",
        "address": "27 Rue de Rome, 75008 Paris",
        "happyHour": "15:00",
        "latitude": 48.8765997,
        "longitude": 2.3232513
    },
    {
        "name": "Wall Street - Pigalle",
        "address": "49 Boulevard de Clichy, 75009 Paris",
        "happyHour": "17:00",
        "latitude": 48.8831839,
        "longitude": 2.3339314
    },
    {
        "name": "MKP Op\u00e9ra",
        "address": "4 Rue Daunou, 75002 Paris",
        "happyHour": "17:00",
        "latitude": 48.8692807,
        "longitude": 2.3323109
    },
    {
        "name": "Caf\u00e9 Joly",
        "address": "23 Avenue Victoria, 75001 Paris",
        "happyHour": "17:00",
        "latitude": 48.8580608,
        "longitude": 2.3459714
    },
    {
        "name": "Le Valois",
        "address": "20 Rue de Bruxelles, 75009 Paris",
        "happyHour": "19:00",
        "latitude": 48.8833919,
        "longitude": 2.330618
    },
    {
        "name": "Bar 3",
        "address": "3 Rue de l'Ancienne Com\u00e9die, 75006 Paris",
        "latitude": 48.8534529,
        "longitude": 2.338545
    },
    {
        "name": "La Cabane Montorgeuil",
        "address": "24 Rue Montorgueil, 75001 Paris",
        "happyHour": "21:27",
        "latitude": 48.8635917,
        "longitude": 2.3465187
    },
    {
        "name": "Le 5e Cru",
        "address": "7 Rue du Cardinal Lemoine, 75005 Paris",
        "latitude": 48.8490573,
        "longitude": 2.3541717
    },
    {
        "name": "The Bombardier",
        "address": "2 Place du Panth\u00e9on, 75005 Paris",
        "happyHour": "17:00",
        "latitude": 48.8468279,
        "longitude": 2.3475259
    },
    {
        "name": "The Local",
        "address": "54 Rue de la Clef, 75005 Paris",
        "happyHour": "17:00",
        "latitude": 48.8433704,
        "longitude": 2.352798
    },
    {
        "name": "Mojito Lab",
        "address": "28 Rue Keller, 75011 Paris",
        "latitude": 48.855091,
        "longitude": 2.3757046
    },
    {
        "name": "Troll Caf\u00e9",
        "address": "27 Rue de Cotte, 75012 Paris",
        "happyHour": "17:00",
        "latitude": 48.8502082,
        "longitude": 2.3780865
    },
    {
        "name": "Red Factory",
        "address": "25 Rue de Lappe, 75011 Paris",
        "happyHour": "17:00",
        "latitude": 48.8536311,
        "longitude": 2.3729138
    },
    {
        "name": "Le Gast",
        "address": "5 Rue Crespin du Gast, 75011 Paris",
        "latitude": 48.8661619,
        "longitude": 2.3816996
    },
    {
        "name": "Le Repaire de Charonne - RPR",
        "address": "114 Rue de Charonne, 75011 Paris",
        "latitude": 48.8547755,
        "longitude": 2.3859449
    },
    {
        "name": "Pile ou Face Pigalle",
        "address": "4 Rue de Douai, 75009 Paris",
        "latitude": 48.8813691,
        "longitude": 2.3358729
    },
    {
        "name": "Mini Pong",
        "address": "64 Rue Jean-Baptiste Pigalle, 75009 Paris",
        "latitude": 48.8816972,
        "longitude": 2.3369123
    },
    {
        "name": "Le Rosalie",
        "address": "42 Rue Popincourt, 75011 Paris",
        "happyHour": "18:00",
        "latitude": 48.8593464,
        "longitude": 2.3759972
    },
    {
        "name": "Les Furieux",
        "address": "74 Rue de la Roquette, 75011 Paris",
        "latitude": 48.8557579,
        "longitude": 2.3753418
    },
    {
        "name": "Mi K Do Bar",
        "address": "134 Rue de Charonne, 75011 Paris",
        "latitude": 48.8551813,
        "longitude": 2.3880024
    },
    {
        "name": "Onze Bar",
        "address": "83 Rue Jean-Pierre Timbaud, 75011 Paris",
        "happyHour": "17:00",
        "latitude": 48.8680586,
        "longitude": 2.378189
    },
    {
        "name": "Caf\u00e9 Frapp\u00e9",
        "address": "95 Rue Montmartre, 75002 Paris",
        "happyHour": "16:00",
        "latitude": 48.8701527,
        "longitude": 2.3427229
    },
    {
        "name": "La Petite Culotte",
        "address": "4 bis rue Violet, 75015 Paris",
        "latitude": 48.8480517,
        "longitude": 2.2934535
    },
    {
        "name": "Le Piston P\u00e9lican",
        "address": "15 Rue de Bagnolet, 75020 Paris",
        "happyHour": "16:00",
        "latitude": 48.8567898,
        "longitude": 2.395742
    },
    {
        "name": "Le Tournesol",
        "address": "9 Rue de la Gait\u00e9, 75014 Paris",
        "latitude": 48.8404547,
        "longitude": 2.3243085
    },
    {
        "name": "Le Comptoir G\u00e9n\u00e9ral",
        "address": "80 Quai de Jemmapes, 75010 Paris",
        "latitude": 48.8721376,
        "longitude": 2.3651539
    },
    {
        "name": "Bianco",
        "address": "60 Rue Montorgueil, 75002 Paris",
        "happyHour": "16:00",
        "latitude": 48.8650408,
        "longitude": 2.3469967
    },
    {
        "name": "Bar du Cirque",
        "address": "108 Rue Amelot, 75011 Paris",
        "happyHour": "17:00",
        "latitude": 48.8629957,
        "longitude": 2.3672976
    },
    {
        "name": "2bis caf\u00e9",
        "address": "2B Rue des \u00c9coles, 75005 Paris",
        "latitude": 48.8477053,
        "longitude": 2.352263
    },
    {
        "name": "3W Kaf\u00e9",
        "address": "8 Rue des Ecouffes, 75004 Paris",
        "latitude": 48.8565814,
        "longitude": 2.3584677
    },
    {
        "name": "A la bi\u00e8re comme \u00e0 la bi\u00e8re",
        "address": "20 Rue Custine, 75018 Paris",
        "latitude": 48.8885911,
        "longitude": 2.3476515
    },
    {
        "name": "A la bi\u00e8re comme \u00e0 la bi\u00e8re - Le Drunken",
        "address": "19 Rue Girard, 93100 Montreuil",
        "latitude": 48.8572012,
        "longitude": 2.4339781
    },
    {
        "name": "\u00c0 la Bonne Bi\u00e8re",
        "address": "32 Rue du Faubourg du Temple, 75011 Paris",
        "latitude": 48.868876,
        "longitude": 2.368091
    },
    {
        "name": "Ah! la Pompe \u00e0 Bi\u00e8re",
        "address": "7Ter Rue Duvergier, 75019 Paris",
        "latitude": 48.8893534,
        "longitude": 2.3768209
    },
    {
        "name": "Andy Wahloo",
        "address": "69 Rue des Gravilliers, 75003 Paris",
        "latitude": 48.8645093,
        "longitude": 2.3542545
    },
    {
        "name": "Ap\u00e9Rock",
        "address": "7 Rue Bayen, 75017 Paris",
        "latitude": 48.8788007,
        "longitude": 2.2955088
    },
    {
        "name": "Archi' Bar",
        "address": "13 Bis Rue Campagne Premi\u00e8re, 75014 Paris",
        "latitude": 48.8398713,
        "longitude": 2.3328115
    },
    {
        "name": "Au Bouquet Saint Paul",
        "address": "85 Rue Saint-Antoine, 75004 Paris",
        "latitude": 48.8545334,
        "longitude": 2.3627527
    },
    {
        "name": "Au Bourguignon du Marais",
        "address": "52 Rue Fran\u00e7ois Miron, 75004 Paris",
        "latitude": 48.8554459,
        "longitude": 2.3575936
    },
    {
        "name": "Au F\u00fbt et \u00e0 Mesure",
        "address": "2 Rue d'Hauteville, 75010 Paris",
        "happyHour": "17:00",
        "latitude": 48.8707446,
        "longitude": 2.3498025
    },
    {
        "name": "Au G\u00e9n\u00e9ral La fayette",
        "address": "52 Rue la Fayette, 75009 Paris",
        "latitude": 48.8751007,
        "longitude": 2.3413278
    },
    {
        "name": "Au Mange-Disque",
        "address": "15 Rue de la Reynie, 75001 Paris",
        "latitude": 48.8600895,
        "longitude": 2.3488913
    },
    {
        "name": "Au P\u00e8re Louis",
        "address": "38 Rue Monsieur le Prince, 75006 Paris",
        "latitude": 48.8490731,
        "longitude": 2.3403206
    },
    {
        "name": "Au Petit Bar",
        "address": "7 Rue du Mont Thabor, 75001 Paris",
        "latitude": 48.8654785,
        "longitude": 2.3291239
    },
    {
        "name": "Au Petit Fer \u00e0 Cheval",
        "address": "30 Rue Vieille du Temple, 75004 Paris",
        "latitude": 48.8574229,
        "longitude": 2.3575556
    },
    {
        "name": "Au Trappiste",
        "address": "4 Rue Saint-Denis, 75001 Paris",
        "happyHour": "16:00",
        "latitude": 48.8582957,
        "longitude": 2.3474796
    },
    {
        "name": "Aux Trois Mailletz",
        "address": "56 Rue Galande, 75005 Paris",
        "latitude": 48.852189,
        "longitude": 2.3465789
    },
    {
        "name": "Bar 228",
        "address": "228 Rue de Rivoli, 75001 Paris",
        "latitude": 48.8651455,
        "longitude": 2.3280773
    },
    {
        "name": "Bar \u00e0 Bulles",
        "address": "4Bis Cit\u00e9 V\u00e9ron, 75018 Paris",
        "latitude": 48.8841214,
        "longitude": 2.331826
    },
    {
        "name": "Bar du Bouillon",
        "address": "3 Rue Racine, 75006 Paris",
        "latitude": 48.850152,
        "longitude": 2.3419436
    },
    {
        "name": "Bar Etna",
        "address": "33 Rue Mazarine, 75006 Paris",
        "latitude": 48.8544675,
        "longitude": 2.3381391
    },
    {
        "name": "Le Gallia Tony",
        "address": "2 bis Rue des Petites \u00c9curies, 75010 Paris",
        "latitude": 48.8740128,
        "longitude": 2.3480448
    },
    {
        "name": "Hemingway",
        "address": "15 Place Vend\u00f4me, 75001 Paris",
        "latitude": 48.8679858,
        "longitude": 2.3288795
    },
    {
        "name": "Bar La Sardine",
        "address": "32 Rue Sainte-Marthe, 75010 Paris",
        "latitude": 48.8740442,
        "longitude": 2.3726408
    },
    {
        "name": "Le 1802",
        "address": "22 Rue Pascal, 75005 Paris",
        "latitude": 48.8378846,
        "longitude": 2.3492752
    },
    {
        "name": "Le Onze",
        "address": "11 Rue Princesse, 75006 Paris",
        "latitude": 48.8521799,
        "longitude": 2.3345593
    },
    {
        "name": "Le Paradis",
        "address": "7 Rue de Sofia, 75018 Paris",
        "latitude": 48.8845624,
        "longitude": 2.3489276
    },
    {
        "name": "Le Villageois",
        "address": "8 Avenue Jean Aicard, 75011 Paris",
        "happyHour": "Happy hour en cours jusqu'\u00e0 22:00",
        "latitude": 48.8649539,
        "longitude": 2.3817048
    },
    {
        "name": "Bar QGrenelle",
        "address": "61 Quai de Grenelle, 75015 Paris",
        "latitude": 48.8496595,
        "longitude": 2.2837038915934476
    },
    {
        "name": "Sir Winston",
        "address": "5 Rue de Presbourg, 75116 Paris",
        "latitude": 48.8739985,
        "longitude": 2.2927777
    },
    {
        "name": "Baranaan",
        "address": "7 Rue du Faubourg Saint-Martin, 75010 Paris",
        "latitude": 48.8695014,
        "longitude": 2.3557076
    },
    {
        "name": "Bardakis",
        "address": "11 Rue Saint-S\u00e9verin, 75005 Paris",
        "happyHour": "16:00",
        "latitude": 48.8524327,
        "longitude": 2.3449963
    },
    {
        "name": "BarOurcq",
        "address": "68 Quai de la Loire, 75019 Paris",
        "latitude": 48.8864617,
        "longitude": 2.377235
    },
    {
        "name": "Bauby Bar",
        "address": "13 Rue Castex, 75004 Paris",
        "latitude": 48.8523601,
        "longitude": 2.3660119
    },
    {
        "name": "BBP - Canal",
        "address": "47 bis Rue Bichat, 75010 Paris",
        "latitude": 48.8725704,
        "longitude": 2.3667571
    },
    {
        "name": "BBP - Pigalle",
        "address": "1 Rue de Bruxelles, 75009 Paris",
        "latitude": 48.8835766,
        "longitude": 2.3319733
    },
    {
        "name": "Beccuti Bar",
        "address": "91 Rue de Rivoli, 75001 Paris",
        "latitude": 48.8606851,
        "longitude": 2.3409535
    },
    {
        "name": "BEER Paris",
        "address": "3 Rue de la Forge Royale, 75011 Paris",
        "latitude": 48.851259,
        "longitude": 2.3803875
    },
    {
        "name": "Berliner Wunderbar",
        "address": "49 Rue de Lappe, 75011 Paris",
        "latitude": 48.8530443,
        "longitude": 2.3741214
    },
    {
        "name": "Bi\u00e8res Cultes - Ch\u00e2telet",
        "address": "14 Rue des Halles, 75001 Paris",
        "latitude": 48.8598608,
        "longitude": 2.346811
    },
    {
        "name": "Bisou.",
        "address": "15 Boulevard du Temple, 75003 Paris",
        "latitude": 48.8640838,
        "longitude": 2.3658858
    },
    {
        "name": "Bla Bla Bar by Novotel",
        "address": "1 Avenue de la R\u00e9publique, 93177 Bagnolet",
        "latitude": 48.8631314,
        "longitude": 2.4154137
    },
    {
        "name": "Blaine Bar",
        "address": "65 Rue Pierre Charron, 75008 Paris",
        "latitude": 48.8700442,
        "longitude": 2.3041309
    },
    {
        "name": "Bliss",
        "address": "8 Rue Coquilli\u00e8re, 75001 Paris",
        "latitude": 48.8635247,
        "longitude": 2.3435873
    },
    {
        "name": "Bobance Bar",
        "address": "51 Rue B\u00e9nard, 75014 Paris",
        "latitude": 48.8322113,
        "longitude": 2.3206389
    },
    {
        "name": "Boteco Lapa",
        "address": "48 Rue de l'\u00c9chiquier, 75010 Paris",
        "latitude": 48.8720164,
        "longitude": 2.3480679
    },
    {
        "name": "BrewDog Le Marais",
        "address": "1 Place de Thorigny, 75003 Paris",
        "latitude": 48.858963,
        "longitude": 2.3620839
    },
    {
        "name": "Buddha-Bar",
        "address": "8-12 Rue Boissy d'Anglas, 75008 Paris",
        "latitude": 48.8673432,
        "longitude": 2.3208417
    },
    {
        "name": "Bull's Brothers",
        "address": "27 Rue de la Huchette, 75005 Paris",
        "latitude": 48.8530741,
        "longitude": 2.3451886
    },
    {
        "name": "Caf\u00e9 A",
        "address": "148 Rue du Faubourg Saint-Martin, 75010 Paris",
        "latitude": 48.8754247,
        "longitude": 2.3600168
    },
    {
        "name": "Caf\u00e9 Chic",
        "address": "126 Rue du Faubourg Saint-Honor\u00e9, 75008 Paris",
        "latitude": 48.8722593,
        "longitude": 2.3128087
    },
    {
        "name": "Caf\u00e9 des Anges",
        "address": "66 Rue de la Roquette, 75011 Paris",
        "latitude": 48.8554529,
        "longitude": 2.3744212
    },
    {
        "name": "Caf\u00e9 Fauve",
        "address": "38 Rue Amelot, 75011 Paris",
        "latitude": 48.8583675,
        "longitude": 2.3685914
    },
    {
        "name": "Caf\u00e9 Fran\u00e7ais",
        "address": "1-3 Place de la Bastille, 75004 Paris",
        "latitude": 48.8531325,
        "longitude": 2.3685571
    },
    {
        "name": "Caf\u00e9 L'Envol Qu\u00e9b\u00e9cois",
        "address": "30 Rue Lac\u00e9p\u00e8de, 75005 Paris",
        "latitude": 48.8439959,
        "longitude": 2.3516581
    },
    {
        "name": "Caf\u00e9 L'Etincelle",
        "address": "42 Rue de Rivoli, 75004 Paris",
        "happyHour": "17:00",
        "latitude": 48.856561,
        "longitude": 2.3558848
    },
    {
        "name": "Cafe Laurent",
        "address": "33 Rue Dauphine, 75006 Paris",
        "latitude": 48.8547769,
        "longitude": 2.339459
    },
    {
        "name": "Caf\u00e9 Meisia",
        "address": "84 Rue Ren\u00e9 Boulanger, 75010 Paris",
        "latitude": 48.8693627,
        "longitude": 2.3570648
    },
    {
        "name": "Caf\u00e9 Montparnasse",
        "address": "8 Place du 18 Juin 1940, 75006 Paris",
        "latitude": 48.8442184,
        "longitude": 2.3235684
    },
    {
        "name": "Caf\u00e9 titon",
        "address": "34 Rue Titon, 75011 Paris",
        "latitude": 48.8528448,
        "longitude": 2.386352
    },
    {
        "name": "Carrousel Fran\u00e7ais",
        "address": "12 Rue de Turbigo, 75001 Paris",
        "latitude": 48.8636995,
        "longitude": 2.348197
    },
    {
        "name": "Castor Club",
        "address": "14 Rue Hautefeuille, 75006 Paris",
        "latitude": 48.8519643,
        "longitude": 2.3423688
    },
    {
        "name": "Celtic Corner",
        "address": "28 Rue de la Grande Truanderie, 75001 Paris",
        "latitude": 48.8630104,
        "longitude": 2.3483278
    },
    {
        "name": "Chez Habibi",
        "address": "44 Rue Traversi\u00e8re, 75012 Paris",
        "latitude": 48.8493262,
        "longitude": 2.3749446
    },
    {
        "name": "Chez Ribe",
        "address": "15 Avenue de Suffren, 75007 Paris",
        "latitude": 48.8561799,
        "longitude": 2.2933125
    },
    {
        "name": "Chivas The Blend",
        "address": "22 Rue d'Aumale, 75009 Paris",
        "latitude": 48.8784469,
        "longitude": 2.3353416
    },
    {
        "name": "Chope-Moi",
        "address": "30 Boulevard du Temple, 75011 Paris",
        "latitude": 48.8650303,
        "longitude": 2.3658849
    },
    {
        "name": "Cicchetti",
        "address": "24 Rue Tiquetonne, 75002 Paris",
        "latitude": 48.8646943,
        "longitude": 2.3485383
    },
    {
        "name": "Combat",
        "address": "63 Rue de Belleville, 75019 Paris",
        "latitude": 48.8721261,
        "longitude": 2.3770543
    },
    {
        "name": "Compagnie des Vins Surnaturels",
        "address": "7 Rue Lobineau, 75006 Paris",
        "latitude": 48.8516816,
        "longitude": 2.3363447
    },
    {
        "name": "Concerto Karaoke Box",
        "address": "15 Rue de Palestro, 75002 Paris",
        "latitude": 48.8653732,
        "longitude": 2.3514197
    },
    {
        "name": "Connolly's Corner",
        "address": "12 Rue de Mirbel, 75005 Paris",
        "latitude": 48.8410579,
        "longitude": 2.3509083
    },
    {
        "name": "COX",
        "address": "15 Rue des Archives, 75004 Paris",
        "happyHour": "18:00",
        "latitude": 48.858263,
        "longitude": 2.3548977
    },
    {
        "name": "Crocodile Vert",
        "address": "6 Rue du Hameau, 75015 Paris",
        "latitude": 48.8354932,
        "longitude": 2.2892815236877695
    },
    {
        "name": "Cuba Compagnie Caf\u00e9",
        "address": "48 Boulevard Beaumarchais, 75011 Paris",
        "latitude": 48.8538985,
        "longitude": 2.3690842
    },
    {
        "name": "CUD",
        "address": "12 Rue des Haudriettes, 75003 Paris",
        "latitude": 48.8618274,
        "longitude": 2.3572001
    },
    {
        "name": "Danico",
        "address": "6 Rue Vivienne, 75002 Paris",
        "latitude": 48.8694158,
        "longitude": 2.3403712
    },
    {
        "name": "Dirty Dick",
        "address": "10 Rue Frochot, 75009 Paris",
        "latitude": 48.8815185,
        "longitude": 2.3375057
    },
    {
        "name": "Divine",
        "address": "61 Rue d'Hauteville, 75010 Paris",
        "latitude": 48.8752059,
        "longitude": 2.3508218
    },
    {
        "name": "Duplex Bar",
        "address": "25 Rue Michel-le-Comte, 75003 Paris",
        "latitude": 48.8624903,
        "longitude": 2.3550448
    },
    {
        "name": "Eden Bar",
        "address": "14 Rue de Bretagne, 75003 Paris",
        "latitude": 48.8627757,
        "longitude": 2.3629704
    },
    {
        "name": "Eight Paris",
        "address": "8 Rue Brant\u00f4me, 75003 Paris",
        "latitude": 48.8617957,
        "longitude": 2.3528551
    },
    {
        "name": "El Hombre",
        "address": "15 Rue de la Reynie, 75004 Paris",
        "happyHour": "17:00",
        "latitude": 48.8599224,
        "longitude": 2.3495554
    },
    {
        "name": "El Tast",
        "address": "70 Rue Duhesme, 75018 Paris",
        "latitude": 48.8937395,
        "longitude": 2.3433318
    },
    {
        "name": "Experimental Cocktail Club",
        "address": "37 Rue Saint-Sauveur, 75002 Paris",
        "latitude": 48.8660836,
        "longitude": 2.3482998
    },
    {
        "name": "Express Bar",
        "address": "31 Rue Saint-Maur, 75011 Paris",
        "latitude": 48.861,
        "longitude": 2.3810929
    },
    {
        "name": "Express de Lyon",
        "address": "1 Rue de Lyon, 75012 Paris",
        "latitude": 48.8459167,
        "longitude": 2.3721315
    },
    {
        "name": "Favela Chic",
        "address": "18 Rue du Faubourg du Temple, 75011 Paris",
        "latitude": 48.8682932,
        "longitude": 2.3661301
    },
    {
        "name": "Fitzgerald Speakeasy",
        "address": "54 Boulevard de la Tour-Maubourg, 75007 Paris",
        "latitude": 48.8587551,
        "longitude": 2.3098364
    },
    {
        "name": "Flag Caf\u00e9",
        "address": "5 Boulevard Beaumarchais, 75004 Paris",
        "latitude": 48.854205,
        "longitude": 2.3686256
    },
    {
        "name": "freedj",
        "address": "35 Rue Sainte-Croix de la Bretonnerie, 75004 Paris",
        "happyHour": "18:00",
        "latitude": 48.8585756,
        "longitude": 2.3549056
    },
    {
        "name": "French Riviera",
        "address": "14 Rue Froissart, 75003 Paris",
        "latitude": 48.8618886,
        "longitude": 2.3649117
    },
    {
        "name": "Frenchie",
        "address": "6 Rue du Nil, 75002 Paris",
        "latitude": 48.8677971,
        "longitude": 2.3479177
    },
    {
        "name": "Fr\u00e9quence",
        "address": "20 Rue Keller, 75011 Paris",
        "latitude": 48.8547937,
        "longitude": 2.3759343
    },
    {
        "name": "Galway Irish Pub",
        "address": "13 Quai des Grands Augustins, 75006 Paris",
        "latitude": 48.8539525,
        "longitude": 2.3436044
    },
    {
        "name": "Golden Promise",
        "address": "11 Rue Tiquetonne, 75002 Paris",
        "latitude": 48.8644933,
        "longitude": 2.3491551
    },
    {
        "name": "Gossima Ping Pong Bar",
        "address": "4 Rue Victor Gelez, 75011 Paris",
        "latitude": 48.8648729,
        "longitude": 2.3827721
    },
    {
        "name": "Gossip Caf\u00e9",
        "address": "16 Rue des Lombards, 75004 Paris",
        "latitude": 48.8592498,
        "longitude": 2.3495781
    },
    {
        "name": "Gourmet Bar",
        "address": "3-5 Place des Marseillais, 94227 Charenton-le-Pont",
        "latitude": 48.8264755,
        "longitude": 2.4055816968399824
    },
    {
        "name": "Grand Bay caf\u00e9",
        "address": "11 Rue des Halles, 75001 Paris",
        "latitude": 48.8597144,
        "longitude": 2.3466035
    },
    {
        "name": "Gravity Bar",
        "address": "44 Rue des Vinaigriers, 75010 Paris",
        "latitude": 48.8732183,
        "longitude": 2.3607954
    },
    {
        "name": "Ground Control",
        "address": "81 Rue du Charolais, 75012 Paris",
        "latitude": 48.8437478,
        "longitude": 2.3818132
    },
    {
        "name": "Guinness Tavern",
        "address": "31bis Rue des Lombards, 75001 Paris",
        "latitude": 48.8598155,
        "longitude": 2.3476419
    },
    {
        "name": "Ha'Penny Bridge Pub",
        "address": "153 Rue de Grenelle, 75007 Paris",
        "happyHour": "17:00",
        "latitude": 48.8578467,
        "longitude": 2.3071787
    },
    {
        "name": "Hard Rock Cafe",
        "address": "14 Boulevard Montmartre, 75009 Paris",
        "happyHour": "16:00",
        "latitude": 48.8718967,
        "longitude": 2.3415625
    },
    {
        "name": "Harry's New York Bar",
        "address": "5 Rue Daunou, 75002 Paris",
        "latitude": 48.8691942,
        "longitude": 2.3321035
    },
    {
        "name": "H\u00f4me bar",
        "address": "47 Rue de Bourgogne, 75007 Paris",
        "latitude": 48.8566178,
        "longitude": 2.3172628
    },
    {
        "name": "Hoppy Corner",
        "address": "34 Rue des Petits Carreaux, 75002 Paris",
        "latitude": 48.8677511,
        "longitude": 2.3474256
    },
    {
        "name": "Hubris",
        "address": "13 Rue du Borr\u00e9go, 75020 Paris",
        "latitude": 48.8727188,
        "longitude": 2.3990292
    },
    {
        "name": "Hurling Pub",
        "address": "8 Rue Descartes, 75005 Paris",
        "latitude": 48.8471401,
        "longitude": 2.3485991
    },
    {
        "name": "Hypnose Bar",
        "address": "25 Rue de Tr\u00e9vise, 75009 Paris",
        "latitude": 48.8742333,
        "longitude": 2.345274
    },
    {
        "name": "I.B.U",
        "address": "20 Cour des Petites \u00c9curies, 75010 Paris",
        "latitude": 48.8726025,
        "longitude": 2.3516821
    },
    {
        "name": "Ice Kube",
        "address": "5 Passage Ruelle, 75018 Paris",
        "latitude": 48.8866692,
        "longitude": 2.3586917
    },
    {
        "name": "Iceparis",
        "address": "115 Rue Saint-Maur, 75011 Paris",
        "latitude": 48.8661234,
        "longitude": 2.3768209
    },
    {
        "name": "ICI Bar de filles",
        "address": "6 Rue de la Tacherie, 75004 Paris",
        "latitude": 48.857479,
        "longitude": 2.3500544
    },
    {
        "name": "Irish Corner",
        "address": "26 Avenue du Bel air, 75012 Paris",
        "latitude": 48.8471092,
        "longitude": 2.3972747
    },
    {
        "name": "ISTR",
        "address": "41 Rue Notre Dame de Nazareth, 75003 Paris",
        "latitude": 48.8675028,
        "longitude": 2.3576032
    },
    {
        "name": "Jacques Bar",
        "address": "30-32 Rue du Sentier, 75002 Paris",
        "latitude": 48.8696482,
        "longitude": 2.3461166
    },
    {
        "name": "Jefrey's",
        "address": "14 Rue Saint-Sauveur, 75002 Paris",
        "latitude": 48.866058,
        "longitude": 2.3486715
    },
    {
        "name": "Ker Beer",
        "address": "10 Rue Vandamme, 75014 Paris",
        "latitude": 48.839616,
        "longitude": 2.3229002
    },
    {
        "name": "KIEZ Biergarten",
        "address": "24 Rue Vauvenargues, 75018 Paris",
        "latitude": 48.8935629,
        "longitude": 2.333305
    },
    {
        "name": "Kouto",
        "address": "40 Rue d'Enghien, 75010 Paris",
        "latitude": 48.8723059,
        "longitude": 2.3492103
    },
    {
        "name": "L'Alibi",
        "address": "11 Rue Lapeyrere, 75018 Paris",
        "latitude": 48.8919525,
        "longitude": 2.3428943
    },
    {
        "name": "L'Alimentation G\u00e9n\u00e9rale",
        "address": "64 Rue Jean-Pierre Timbaud, 75011 Paris",
        "latitude": 48.8668431,
        "longitude": 2.3743891
    },
    {
        "name": "L'Area",
        "address": "10 Rue des Tournelles, 75004 Paris",
        "latitude": 48.8542873,
        "longitude": 2.3673836
    },
    {
        "name": "L'Art Brut Bistrot",
        "address": "78 Rue Quincampoix, 75003 Paris",
        "latitude": 48.8621665,
        "longitude": 2.3511124
    },
    {
        "name": "L'Atalante",
        "address": "26 Quai de la Marne, 75019 Paris",
        "latitude": 48.8897319,
        "longitude": 2.3829449
    },
    {
        "name": "L'Atelier des Artistes",
        "address": "4 Rue Rampon, 75011 Paris",
        "latitude": 48.8661179,
        "longitude": 2.3669515
    },
    {
        "name": "L'Atelier Saisonnier",
        "address": "58 Rue la Fayette, 75009 Paris",
        "happyHour": "18:00",
        "latitude": 48.8753894,
        "longitude": 2.3424351
    },
    {
        "name": "L'Attirail Caf\u00e9",
        "address": "9 Rue au Maire, 75003 Paris",
        "latitude": 48.8644851,
        "longitude": 2.3569256
    },
    {
        "name": "L'Echiquier",
        "address": "164 Rue Saint-Maur, 75011 Paris",
        "latitude": 48.8698217,
        "longitude": 2.3736704
    },
    {
        "name": "L'\u00c9clair",
        "address": "32 Rue Cler, 75007 Paris",
        "latitude": 48.8570752,
        "longitude": 2.306165
    },
    {
        "name": "L'Enchanteur",
        "address": "15 Rue Michel-le-Comte, 75003 Paris",
        "latitude": 48.8622269,
        "longitude": 2.3559779
    },
    {
        "name": "L'\u00c9picier",
        "address": "24 Rue Notre Dame de Nazareth, 75003 Paris",
        "latitude": 48.8672537,
        "longitude": 2.360023
    },
    {
        "name": "L'Equinox",
        "address": "33 Rue des Rosiers, 75004 Paris",
        "latitude": 48.8578047,
        "longitude": 2.3580218
    },
    {
        "name": "L'Escargot Bar",
        "address": "50 Rue de la Villette, 75019 Paris",
        "latitude": 48.8765913,
        "longitude": 2.3877409
    },
    {
        "name": "L'Express Bar",
        "address": "23 Rue du Roule, 75001 Paris",
        "latitude": 48.8610996,
        "longitude": 2.3438764
    },
    {
        "name": "L'Intr\u00e9pide Bar",
        "address": "37 Rue Pierre Fontaine, 75009 Paris",
        "latitude": 48.8829761,
        "longitude": 2.3329762
    },
    {
        "name": "L'Ivress Sentier",
        "address": "5 Rue Poissonni\u00e8re, 75002 Paris",
        "latitude": 48.8687276,
        "longitude": 2.3476212
    },
    {
        "name": "L'Orillon",
        "address": "35 Rue de l'Orillon, 75011 Paris",
        "latitude": 48.8702425,
        "longitude": 2.3763227
    },
    {
        "name": "La Belle Hortense",
        "address": "31 Rue Vieille du Temple, 75004 Paris",
        "latitude": 48.8575148,
        "longitude": 2.3574824
    },
    {
        "name": "La Binouze Paradis",
        "address": "11 Rue de Paradis, 75010 Paris",
        "latitude": 48.8746147,
        "longitude": 2.3539667
    },
    {
        "name": "La Boissonni\u00e8re Sentier",
        "address": "17 Rue Poissonni\u00e8re, 75002 Paris",
        "latitude": 48.869371,
        "longitude": 2.3476946
    },
    {
        "name": "La Cabane Montorgueil",
        "address": "24 Rue Montorgueil, 75001 Paris",
        "latitude": 48.8635917,
        "longitude": 2.3465187
    },
    {
        "name": "La Cagnotte",
        "address": "114 Rue de Belleville, 75020 Paris",
        "latitude": 48.8746196,
        "longitude": 2.3875953
    },
    {
        "name": "La Cave des Abbesses",
        "address": "43 Rue des Abbesses, 75018 Paris",
        "latitude": 48.8852194,
        "longitude": 2.3364259
    },
    {
        "name": "La Cave St Germain",
        "address": "17 Rue des Canettes, 75006 Paris",
        "latitude": 48.8519596,
        "longitude": 2.333751
    },
    {
        "name": "La Chaise au Plafond",
        "address": "10 Rue du Tr\u00e9sor, 75004 Paris",
        "latitude": 48.8572131,
        "longitude": 2.3576453
    },
    {
        "name": "La Cordonnerie",
        "address": "142 Rue Saint-Denis, 75002 Paris",
        "latitude": 48.8652666,
        "longitude": 2.3505005
    },
    {
        "name": "La Fine Mousse Bar",
        "address": "6 Avenue Jean Aicard, 75011 Paris",
        "latitude": 48.8648522,
        "longitude": 2.381758
    },
    {
        "name": "La Folie en T\u00eate",
        "address": "33 Rue de la Butte aux Cailles, 75013 Paris",
        "happyHour": "17:00",
        "latitude": 48.8275471,
        "longitude": 2.3481383
    },
    {
        "name": "La Fus\u00e9e",
        "address": "168 Rue Saint-Martin, 75003 Paris",
        "latitude": 48.8621658,
        "longitude": 2.352026
    },
    {
        "name": "La F\u00fbt Gueuze",
        "address": "24 Rue Dumeril, 75013 Paris",
        "happyHour": "16:00",
        "latitude": 48.8363055,
        "longitude": 2.358319
    },
    {
        "name": "La M\u00e9canique Ondulatoire",
        "address": "8 Passage Thi\u00e9r\u00e9, 75011 Paris",
        "latitude": 48.8535516,
        "longitude": 2.3746079
    },
    {
        "name": "La Mercerie",
        "address": "98 Rue Oberkampf, 75011 Paris",
        "latitude": 48.866723,
        "longitude": 2.3817382
    },
    {
        "name": "La Mezcaleria",
        "address": "13 Boulevard du Temple, 75003 Paris",
        "latitude": 48.8639586,
        "longitude": 2.3659619
    },
    {
        "name": "La Mutinerie",
        "address": "Rue Saint-Martin, 75003 Paris",
        "latitude": 48.8649726,
        "longitude": 2.3533787
    },
    {
        "name": "La Panfoulia",
        "address": "7 Rue Sainte-Croix de la Bretonnerie, 75004 Paris",
        "latitude": 48.8578363,
        "longitude": 2.3569371
    },
    {
        "name": "La Penderie",
        "address": "17 Rue \u00c9tienne Marcel, 75001 Paris",
        "latitude": 48.8651106,
        "longitude": 2.3438261
    },
    {
        "name": "La Perle",
        "address": "78 Rue Vieille du Temple, 75003 Paris",
        "latitude": 48.8597859,
        "longitude": 2.3605621
    },
    {
        "name": "La Pirada",
        "address": "7 Rue de Lappe, 75011 Paris",
        "happyHour": "17:30",
        "latitude": 48.8540569,
        "longitude": 2.3720435
    },
    {
        "name": "La Place Verte",
        "address": "105 Rue Oberkampf, 75011 Paris",
        "latitude": 48.866723,
        "longitude": 2.3817382
    },
    {
        "name": "La Pomme D'eve",
        "address": "1 Rue Laplace, 75005 Paris",
        "latitude": 48.8471738,
        "longitude": 2.3479717
    },
    {
        "name": "La Quincave",
        "address": "17 Rue Br\u00e9a, 75006 Paris",
        "latitude": 48.8429838,
        "longitude": 2.3300684
    },
    {
        "name": "La Robe & La Mousse",
        "address": "3 Rue Monsieur le Prince, 75006 Paris",
        "latitude": 48.8516495,
        "longitude": 2.3390607
    },
    {
        "name": "La Rotonde",
        "address": "17 Rue de la Roquette, 75011 Paris",
        "latitude": 48.8544545,
        "longitude": 2.3715226
    },
    {
        "name": "La Ru\u00e9e Vers L'Orge",
        "address": "6 Rue des Fontaines du Temple, 75003 Paris",
        "latitude": 48.8655917,
        "longitude": 2.3595983
    },
    {
        "name": "La Surferie",
        "address": "69 Rue Jean-Pierre Timbaud, 75011 Paris",
        "latitude": 48.867439,
        "longitude": 2.376255
    },
    {
        "name": "La Trinquette",
        "address": "67 Rue des Gravilliers, 75003 Paris",
        "latitude": 48.8644586,
        "longitude": 2.3544256
    },
    {
        "name": "Ladur\u00e9e - Le Bar",
        "address": "13 Rue Lincoln, 75008 Paris",
        "latitude": 48.8706547,
        "longitude": 2.3030775
    },
    {
        "name": "Lap\u00e9rouse",
        "address": "51 Quai des Grands Augustins, 75006 Paris",
        "latitude": 48.8551397,
        "longitude": 2.3415837
    },
    {
        "name": "Latin Corner",
        "address": "12 Rue de la Huchette, 75005 Paris",
        "latitude": 48.8529052,
        "longitude": 2.3460842
    },
    {
        "name": "Lavomatic",
        "address": "30 Rue Ren\u00e9 Boulanger, 75010 Paris",
        "latitude": 48.8684267,
        "longitude": 2.3617991
    },
    {
        "name": "Le 138",
        "address": "138 Rue du Faubourg Saint-Antoine, 75012 Paris",
        "latitude": 48.8504557,
        "longitude": 2.3794658
    },
    {
        "name": "Le 153",
        "address": "153 Rue Saint-Martin, 75003 Paris",
        "latitude": 48.8619698,
        "longitude": 2.3517276
    },
    {
        "name": "Le 1905",
        "address": "25 Rue Beautreillis, 75004 Paris",
        "latitude": 48.8536886,
        "longitude": 2.3643812
    },
    {
        "name": "Le 43-Roof Top",
        "address": "4 Rue Danton, 75006 Paris",
        "latitude": 48.8527774,
        "longitude": 2.3422977
    },
    {
        "name": "Le Banco Bar",
        "address": "1 Rue des Trois Bornes, 75011 Paris",
        "latitude": 48.866153,
        "longitude": 2.3709769
    },
    {
        "name": "Le Bar",
        "address": "27 Rue de Cond\u00e9, 75006 Paris",
        "latitude": 48.8497282,
        "longitude": 2.3379794
    },
    {
        "name": "Park Hyatt - Vend\u00f4me",
        "address": "5 rue de la Paix, 75002 Paris",
        "latitude": 48.8687982,
        "longitude": 2.3305213
    },
    {
        "name": "Le Bar \u00e0 Nenette",
        "address": "26 Rue de Lappe, 75011 Paris",
        "latitude": 48.8533533,
        "longitude": 2.373353
    },
    {
        "name": "Le Bar \u00e0 Pintes",
        "address": "111 Rue Saint-Maur, 75011 Paris",
        "latitude": 48.8658769,
        "longitude": 2.377033
    },
    {
        "name": "Le Bar Botaniste",
        "address": "10 Avenue d'I\u00e9na, 75116 Paris",
        "latitude": 48.8637194,
        "longitude": 2.2934262
    },
    {
        "name": "Le Bar commun",
        "address": "135 Rue des Poissonniers, 75018 Paris",
        "latitude": 48.8952418,
        "longitude": 2.3528514
    },
    {
        "name": "Le Bar de Fer",
        "address": "7 Rue du Pot de Fer, 75005 Paris",
        "latitude": 48.8429861,
        "longitude": 2.3489269
    },
    {
        "name": "Le Bar du Bristol",
        "address": "112 Rue du Faubourg Saint-Honor\u00e9, 75008 Paris",
        "latitude": 48.8716714,
        "longitude": 2.3147666
    },
    {
        "name": "Le bar du caveau",
        "address": "17 Place Dauphine, 75001 Paris",
        "latitude": 48.8564537,
        "longitude": 2.3421638
    },
    {
        "name": "Le Bar Du March\u00e9",
        "address": "75 Rue de Seine, 75006 Paris",
        "latitude": 48.8539784,
        "longitude": 2.3370222
    },
    {
        "name": "Le Bar du Plaza Ath\u00e9n\u00e9e",
        "address": "25 Avenue Montaigne, 75008 Paris",
        "latitude": 48.866381450000006,
        "longitude": 2.303892572915755
    },
    {
        "name": "Le Bar Fondamental Pigalle - LBF",
        "address": "6 Rue Andr\u00e9 Antoine, 75018 Paris",
        "latitude": 48.8829622,
        "longitude": 2.337538
    },
    {
        "name": "Le Bar Kl\u00e9ber",
        "address": "19 Avenue Kl\u00e9ber, 75116 Paris",
        "latitude": 48.870745,
        "longitude": 2.2933072
    },
    {
        "name": "Le Bar'Ouf",
        "address": "182 Rue Saint-Martin, 75003 Paris",
        "latitude": 48.8626752,
        "longitude": 2.3522857
    },
    {
        "name": "Le Barav",
        "address": "6 Rue Charles-Fran\u00e7ois Dupuis, 75003 Paris",
        "latitude": 48.8651842,
        "longitude": 2.3631892
    },
    {
        "name": "Le Beaumarchais",
        "address": "21 Boulevard Beaumarchais, 75004 Paris",
        "latitude": 48.855279,
        "longitude": 2.3683748
    },
    {
        "name": "Le Bercail",
        "address": "144 Rue Oberkampf, 75011 Paris",
        "latitude": 48.866723,
        "longitude": 2.3817382
    },
    {
        "name": "Le Bistro des Augustins",
        "address": "39 Quai des Grands Augustins, 75006 Paris",
        "latitude": 48.8547428,
        "longitude": 2.3421325
    },
    {
        "name": "Le Bistrot L\u00e9o",
        "address": "92 Rue de Turenne, 75003 Paris",
        "latitude": 48.861702,
        "longitude": 2.3647086
    },
    {
        "name": "Le Bougnat",
        "address": "28 Rue de Saintonge, 75003 Paris",
        "latitude": 48.8622881,
        "longitude": 2.3631634
    },
    {
        "name": "Le Bouillon",
        "address": "6 Rue Planchat, 75020 Paris",
        "happyHour": "17:00",
        "latitude": 48.8521792,
        "longitude": 2.3992799
    },
    {
        "name": "Le Caf\u00e9 des Antiquaires",
        "address": "15 Rue de la Grange Bateli\u00e8re, 75009 Paris",
        "latitude": 48.8730871,
        "longitude": 2.3415787
    },
    {
        "name": "Le Caf\u00e9 des Chats",
        "address": "9 Rue Sedaine, 75011 Paris",
        "latitude": 48.8557954,
        "longitude": 2.3717948
    },
    {
        "name": "Le Caf\u00e9 des Mus\u00e9es",
        "address": "49 Rue de Turenne, 75003 Paris",
        "latitude": 48.8580373,
        "longitude": 2.3643741
    },
    {
        "name": "Le Caf\u00e9 Noir",
        "address": "65 Rue Montmartre, 75002 Paris",
        "latitude": 48.8664533,
        "longitude": 2.3442977
    },
    {
        "name": "Le Canon de la Nation",
        "address": "2 Place de la Nation, 75012 Paris",
        "latitude": 48.8483419,
        "longitude": 2.3941371
    },
    {
        "name": "Le Carlie",
        "address": "177 Rue Saint-Martin, 75003 Paris",
        "happyHour": "17:00",
        "latitude": 48.862679,
        "longitude": 2.3521501
    },
    {
        "name": "Le Carolus",
        "address": "130 Ter Boulevard de Clichy, 75018 Paris",
        "latitude": 48.8838764,
        "longitude": 2.3327896
    },
    {
        "name": "Le Carrefour Caf\u00e9.",
        "address": "8 Rue des Archives, 75004 Paris",
        "latitude": 48.8575471,
        "longitude": 2.3544589
    },
    {
        "name": "Le Caveau des Oubliettes",
        "address": "52 Rue Galande, 75005 Paris",
        "latitude": 48.8519809,
        "longitude": 2.3467162
    },
    {
        "name": "Le Charlot",
        "address": "38 Rue de Bretagne, 75003 Paris",
        "latitude": 48.8630258,
        "longitude": 2.3624789
    },
    {
        "name": "Le Cinquante",
        "address": "50 Rue de Lancry, 75010 Paris",
        "latitude": 48.8719581,
        "longitude": 2.3626678
    },
    {
        "name": "Le Clown Bar",
        "address": "114 Rue Amelot, 75011 Paris",
        "latitude": 48.8635874,
        "longitude": 2.3671315
    },
    {
        "name": "Le C\u0153ur Fou",
        "address": "55 Rue Montmartre, 75002 Paris",
        "latitude": 48.8701527,
        "longitude": 2.3427229
    },
    {
        "name": "Le Comptoir - Rugby Bar",
        "address": "354 Bis Rue de Vaugirard, 75015 Paris",
        "happyHour": "17:00",
        "latitude": 48.8357004,
        "longitude": 2.29299
    },
    {
        "name": "Le Connetable",
        "address": "55 Rue des Archives, 75003 Paris",
        "latitude": 48.8614471,
        "longitude": 2.3583969
    },
    {
        "name": "Le Corner Caf\u00e9",
        "address": "29 Rue du 4 septembre, 75002 Paris",
        "latitude": 48.8698578,
        "longitude": 2.3345886
    },
    {
        "name": "Le Cristal-Bar",
        "address": "35 Rue Louis Blanc, 75010 Paris",
        "latitude": 48.8811654,
        "longitude": 2.3648387
    },
    {
        "name": "Le croco du marais",
        "address": "6 Rue Dupetit-Thouars, 75003 Paris",
        "latitude": 48.8651142,
        "longitude": 2.3624972
    },
    {
        "name": "Le Cyrano",
        "address": "3 Rue Biot, 75017 Paris",
        "latitude": 48.8838337,
        "longitude": 2.3265361
    },
    {
        "name": "Le Dauphin",
        "address": "131 Avenue Parmentier, 75011 Paris",
        "latitude": 48.8694819,
        "longitude": 2.3712557
    },
    {
        "name": "Le Dokhan\u2019s Bar",
        "address": "117 Rue Lauriston, 75116 Paris",
        "latitude": 48.8663766,
        "longitude": 2.2867453
    },
    {
        "name": "Le Dude",
        "address": "214 Rue Saint-Maur, 75010 Paris",
        "latitude": 48.8728731,
        "longitude": 2.3710083
    },
    {
        "name": "Le Fleurus",
        "address": "6 Boulevard Jourdan, 75014 Paris",
        "latitude": 48.8207249,
        "longitude": 2.3371523
    },
    {
        "name": "Le Fou",
        "address": "37 bis Rue du Sentier, 75002 Paris",
        "latitude": 48.8696482,
        "longitude": 2.3461166
    },
    {
        "name": "Le Garde Robe",
        "address": "41 Rue de l'Arbre Sec, 75001 Paris",
        "latitude": 48.8610361,
        "longitude": 2.342417
    },
    {
        "name": "Le G\u00e9nie Sous Les Etoiles",
        "address": "15 Rue Breguet, 75011 Paris",
        "latitude": 48.8574217,
        "longitude": 2.3729399
    },
    {
        "name": "Le Gorille Paris",
        "address": "1 Rue de Marivaux, 75002 Paris",
        "latitude": 48.8704785,
        "longitude": 2.3372353
    },
    {
        "name": "Le Hibou",
        "address": "16 Carrefour de l'Od\u00e9on, 75006 Paris",
        "latitude": 48.8518121,
        "longitude": 2.3386898
    },
    {
        "name": "Le Jojo Bar",
        "address": "168 Rue Saint-Martin, 75003 Paris",
        "latitude": 48.8621658,
        "longitude": 2.352026
    },
    {
        "name": "Le Ju'",
        "address": "16 Rue des Archives, 75004 Paris",
        "latitude": 48.8577293,
        "longitude": 2.3547383
    },
    {
        "name": "Le Lakanal",
        "address": "2 Avenue Ren\u00e9 Coty, 75014 Paris",
        "latitude": 48.833209,
        "longitude": 2.332583
    },
    {
        "name": "Le Like Bar",
        "address": "12 Rue du Pl\u00e2tre, 75004 Paris",
        "latitude": 48.8592835,
        "longitude": 2.3549261
    },
    {
        "name": "Le Lock Groove",
        "address": "15 Rue Roger, 75014 Paris",
        "happyHour": "18:00",
        "latitude": 48.835374,
        "longitude": 2.3266657
    },
    {
        "name": "Le Mauri 7",
        "address": "46 Rue du Faubourg Saint-Denis, 75010 Paris",
        "latitude": 48.8715998,
        "longitude": 2.3537683
    },
    {
        "name": "Le Max",
        "address": "6 Rue de la Petite Truanderie, 75001 Paris",
        "happyHour": "17:00",
        "latitude": 48.8628099,
        "longitude": 2.348314
    },
    {
        "name": "Le Moli\u00e8re",
        "address": "12 Rue de Buci, 75006 Paris",
        "latitude": 48.8538997,
        "longitude": 2.3372767
    },
    {
        "name": "Le Next",
        "address": "17 Rue Tiquetonne, 75002 Paris",
        "latitude": 48.8646265,
        "longitude": 2.3485671
    },
    {
        "name": "Le Perchoir",
        "address": "14 Rue Crespin du Gast, 75011 Paris",
        "latitude": 48.865445,
        "longitude": 2.3820354
    },
    {
        "name": "Le Perchoir Marais",
        "address": "33 Rue de la Verrerie, 75004 Paris",
        "latitude": 48.8575589,
        "longitude": 2.3539471
    },
    {
        "name": "Le Piano Vache",
        "address": "8 Rue Laplace, 75005 Paris",
        "latitude": 48.84728,
        "longitude": 2.3477104
    },
    {
        "name": "Le Pick Clops",
        "address": "16 Rue Vieille du Temple, 75004 Paris",
        "latitude": 48.8567474,
        "longitude": 2.357
    },
    {
        "name": "Le Piston P\u00e9lican.",
        "address": "15 Rue de Bagnolet, 75020 Paris",
        "latitude": 48.8567898,
        "longitude": 2.395742
    },
    {
        "name": "Le Progr\u00e8s",
        "address": "1 Rue de Bretagne, 75003 Paris",
        "latitude": 48.8619765,
        "longitude": 2.3641189
    },
    {
        "name": "Le Proibido",
        "address": "34 Rue Durantin, 75018 Paris",
        "latitude": 48.8860329,
        "longitude": 2.3367672
    },
    {
        "name": "Le Qu4tre",
        "address": "4 Rue d'Anjou, 75008 Paris",
        "latitude": 48.8694993,
        "longitude": 2.3206396
    },
    {
        "name": "Le Rempart",
        "address": "15 Rue Saint-Antoine, 75004 Paris",
        "happyHour": "15:00",
        "latitude": 48.8534008,
        "longitude": 2.3665925
    },
    {
        "name": "Le Rivolux",
        "address": "16 Rue de Rivoli, 75004 Paris",
        "happyHour": "18:00",
        "latitude": 48.8557197,
        "longitude": 2.3594186
    },
    {
        "name": "Le Rooftop",
        "address": "19 Avenue Kl\u00e9ber, 75116 Paris",
        "latitude": 48.870745,
        "longitude": 2.2933072
    },
    {
        "name": "Le Rooster Bar",
        "address": "54 Rue de Montreuil, 75011 Paris",
        "latitude": 48.8504129,
        "longitude": 2.3895066
    },
    {
        "name": "Le Sanz",
        "address": "49 Rue du Faubourg Saint-Antoine, 75011 Paris",
        "latitude": 48.8502684,
        "longitude": 2.3829591
    },
    {
        "name": "Le Scott",
        "address": "7 Rue Delambre, 75014 Paris",
        "latitude": 48.8417131,
        "longitude": 2.3285868
    },
    {
        "name": "Le S\u00e9maphore",
        "address": "32 Rue de Londres, 75009 Paris",
        "latitude": 48.8776389,
        "longitude": 2.3278199
    },
    {
        "name": "Le Sonart",
        "address": "55 Rue Jean-Baptiste Pigalle, 75009 Paris",
        "latitude": 48.8807878,
        "longitude": 2.3354594
    },
    {
        "name": "Le Sous Bock",
        "address": "49 Rue Saint-Honor\u00e9, 75001 Paris",
        "latitude": 48.8609023,
        "longitude": 2.3451605
    },
    {
        "name": "Le Speakeasy",
        "address": "25 Rue Jean Giraudoux, 75016 Paris",
        "latitude": 48.8694965,
        "longitude": 2.2965663
    },
    {
        "name": "Le Sully",
        "address": "13 Rue du Faubourg Saint-Denis, 75010 Paris",
        "latitude": 48.8783988,
        "longitude": 2.3570365
    },
    {
        "name": "Le Syndicat",
        "address": "51 Rue du Faubourg Saint-Denis, 75010 Paris",
        "latitude": 48.8717915,
        "longitude": 2.3536586
    },
    {
        "name": "Le Trac",
        "address": "72 Avenue de France, 75013 Paris",
        "latitude": 48.8279199,
        "longitude": 2.3795473
    },
    {
        "name": "Le Verre \u00e0 Vin",
        "address": "215 Rue de Bercy, 75012 Paris",
        "latitude": 48.845873,
        "longitude": 2.3706687
    },
    {
        "name": "Le VIK Karaok\u00e9",
        "address": "4 Rue Suger, 75006 Paris",
        "latitude": 48.8530386,
        "longitude": 2.3424571
    },
    {
        "name": "Le Willi's Wine Bar",
        "address": "13 Rue des Petits Champs, 75001 Paris",
        "latitude": 48.8663708,
        "longitude": 2.3383073
    },
    {
        "name": "le Zimmer",
        "address": "1 Place du Ch\u00e2telet, 75001 Paris",
        "latitude": 48.8576003,
        "longitude": 2.3467639
    },
    {
        "name": "Les 4 Chouettes",
        "address": "270 Rue du Faubourg Saint-Antoine, 75012 Paris",
        "latitude": 48.8520337,
        "longitude": 2.3732022
    },
    {
        "name": "Les Agapes de Nina",
        "address": "5 Rue Ferdinand Duval, 75004 Paris",
        "latitude": 48.8562824,
        "longitude": 2.3592731
    },
    {
        "name": "Les Blouses Blanches",
        "address": "186 Rue du Faubourg Saint-Antoine, 75012 Paris",
        "latitude": 48.8520337,
        "longitude": 2.3732022
    },
    {
        "name": "Les Caves Alli\u00e9es",
        "address": "44 Rue Gr\u00e9goire de Tours, 75006 Paris",
        "latitude": 48.8519137,
        "longitude": 2.33741
    },
    {
        "name": "Les Caves Populaires",
        "address": "22 Rue des Dames, 75017 Paris",
        "latitude": 48.8847385,
        "longitude": 2.3246099
    },
    {
        "name": "Les Ecuries",
        "address": "8 Rue Bachaumont, 75002 Paris",
        "latitude": 48.8660329,
        "longitude": 2.3460818
    },
    {
        "name": "Les \u00c9diteurs",
        "address": "4 Carrefour de l'Od\u00e9on, 75006 Paris",
        "latitude": 48.8520206,
        "longitude": 2.3385306
    },
    {
        "name": "Les Epiciers",
        "address": "33 Rue de Montmorency, 75003 Paris",
        "latitude": 48.8633289,
        "longitude": 2.354049
    },
    {
        "name": "Les Fontaines",
        "address": "12 Rue Brisemiche, 75004 Paris",
        "latitude": 48.8595556,
        "longitude": 2.3519508
    },
    {
        "name": "Les Justes - Pigalle",
        "address": "1 Rue Frochot, 75009 Paris",
        "latitude": 48.8811348,
        "longitude": 2.3375427
    },
    {
        "name": "Les Marronniers",
        "address": "18 Rue des Archives, 75004 Paris",
        "latitude": 48.8577895,
        "longitude": 2.3548
    },
    {
        "name": "Les Passerelles",
        "address": "19 Rue Saulnier, 75009 Paris",
        "latitude": 48.8753155,
        "longitude": 2.3443779
    },
    {
        "name": "Les Petites Saisons",
        "address": "57 Rue Ramey, 75018 Paris",
        "latitude": 48.8903141,
        "longitude": 2.3455549
    },
    {
        "name": "Les Philosophes",
        "address": "28 Rue Vieille du Temple, 75004 Paris",
        "latitude": 48.8573363,
        "longitude": 2.3574834
    },
    {
        "name": "Les Pi\u00e9tons",
        "address": "8 Rue des Lombards, 75004 Paris",
        "latitude": 48.8591339,
        "longitude": 2.3499324
    },
    {
        "name": "Les Planques",
        "address": "19 Rue Oberkampf, 75011 Paris",
        "latitude": 48.8633817,
        "longitude": 2.3689965
    },
    {
        "name": "Les Souffleurs",
        "address": "7 Rue de la Verrerie, 75004 Paris",
        "latitude": 48.8570994,
        "longitude": 2.3551168
    },
    {
        "name": "Les Timbr\u00e9s",
        "address": "14 Rue d'Alleray, 75015 Paris",
        "happyHour": "16:00",
        "latitude": 48.8381374,
        "longitude": 2.3011831
    },
    {
        "name": "Les Tontons Bringueurs",
        "address": "1 Rue Boyer, 75020 Paris",
        "latitude": 48.8669859,
        "longitude": 2.3927766
    },
    {
        "name": "Les Trois 8",
        "address": "11 Rue Victor Letalle, 75020 Paris",
        "latitude": 48.8666813,
        "longitude": 2.3854927
    },
    {
        "name": "Little Red Door",
        "address": "60 Rue Charlot, 75003 Paris",
        "latitude": 48.8636541,
        "longitude": 2.3635309
    },
    {
        "name": "Lot Of Wine",
        "address": "54 Rue de l'H\u00f4tel de ville, 75004 Paris",
        "latitude": 48.8543328,
        "longitude": 2.3558691
    },
    {
        "name": "Lulu White",
        "address": "12 Rue Frochot, 75009 Paris",
        "latitude": 48.8816299,
        "longitude": 2.3374452
    },
    {
        "name": "Lux Bar",
        "address": "12 Rue Lepic, 75018 Paris",
        "latitude": 48.8844708,
        "longitude": 2.3334986
    },
    {
        "name": "Mabel",
        "address": "58 Rue d'Aboukir, 75002 Paris",
        "latitude": 48.8674283,
        "longitude": 2.3461022
    },
    {
        "name": "Manfred",
        "address": "1 Rue R\u00e9aumur, 75003 Paris",
        "latitude": 48.8662155,
        "longitude": 2.352596
    },
    {
        "name": "Maria Loca",
        "address": "31 Boulevard Henri IV, 75004 Paris",
        "latitude": 48.8522018,
        "longitude": 2.3654674
    },
    {
        "name": "Marlusse et Lapin",
        "address": "14 Rue Germain Pilon, 75018 Paris",
        "latitude": 48.8837552,
        "longitude": 2.3367371
    },
    {
        "name": "Martin Bar",
        "address": "40 Rue Ren\u00e9 Boulanger, 75010 Paris",
        "latitude": 48.8684245,
        "longitude": 2.3609056
    },
    {
        "name": "MAZE",
        "address": "13 Rue Tiquetonne, 75002 Paris",
        "latitude": 48.8645472,
        "longitude": 2.3489162
    },
    {
        "name": "Meltdown",
        "address": "6 Passage Thi\u00e9r\u00e9, 75011 Paris",
        "latitude": 48.8534901,
        "longitude": 2.3747046
    },
    {
        "name": "Mermaids and Divers",
        "address": "23 Rue de Lappe, 75011 Paris",
        "happyHour": "Happy hour en cours jusqu'\u00e0 21:00",
        "latitude": 48.8537164,
        "longitude": 2.3727779
    },
    {
        "name": "Mineirinho Bar",
        "address": "7 Rue Henri Chevreau, 75020 Paris",
        "latitude": 48.8691528,
        "longitude": 2.3894527
    },
    {
        "name": "Mino",
        "address": "42 Rue de M\u00e9nilmontant, 75020 Paris",
        "latitude": 48.8679269,
        "longitude": 2.3868993
    },
    {
        "name": "Mo'Town Bar",
        "address": "116 Boulevard de M\u00e9nilmontant, 75020 Paris",
        "latitude": 48.8656828,
        "longitude": 2.3846983
    },
    {
        "name": "Mon Coco",
        "address": "6 Place de la R\u00e9publique, 75011 Paris",
        "latitude": 48.8666976,
        "longitude": 2.3655874
    },
    {
        "name": "Monsieur Antoine",
        "address": "17 Avenue Parmentier, 75011 Paris",
        "latitude": 48.8603549,
        "longitude": 2.3783594
    },
    {
        "name": "Moonshiner",
        "address": "5 Rue Sedaine, 75011 Paris",
        "latitude": 48.8556393,
        "longitude": 2.3712026
    },
    {
        "name": "Niki Club",
        "address": "10 Rue de Lappe, 75011 Paris",
        "latitude": 48.8540133,
        "longitude": 2.3719984
    },
    {
        "name": "No Entry",
        "address": "20 bis Rue de Douai, 75009 Paris",
        "latitude": 48.8838318,
        "longitude": 2.3286808
    },
    {
        "name": "\u00d4 Chateau",
        "address": "68 Rue Jean-Jacques Rousseau, 75001 Paris",
        "latitude": 48.8643288,
        "longitude": 2.3442074
    },
    {
        "name": "O' Chupito",
        "address": "46 Rue des Lombards, 75001 Paris",
        "latitude": 48.8598155,
        "longitude": 2.3476419
    },
    {
        "name": "O'MokABar",
        "address": "43 Rue de la Chapelle, 75018 Paris",
        "latitude": 48.893607,
        "longitude": 2.3593087
    },
    {
        "name": "O'Sullivans by The Mill",
        "address": "92 Boulevard de Clichy, 75018 Paris",
        "latitude": 48.8841574,
        "longitude": 2.331993
    },
    {
        "name": "O'Sullivans - Grands Boulevards",
        "address": "1 Boulevard Montmartre, 75002 Paris",
        "happyHour": "17:00",
        "latitude": 48.8719981,
        "longitude": 2.3400532
    },
    {
        "name": "O'Sullivans - Rebel Bar",
        "address": "10 Rue des Lombards, 75004 Paris",
        "happyHour": "17:00",
        "latitude": 48.8591661,
        "longitude": 2.3498298
    },
    {
        "name": "Octopussy",
        "address": "22 Rue de La Jonqui\u00e8re, 75017 Paris",
        "latitude": 48.89355,
        "longitude": 2.3252417
    },
    {
        "name": "Oplato",
        "address": "69 Rue de Charonne, 75011 Paris",
        "latitude": 48.8535753,
        "longitude": 2.3801893
    },
    {
        "name": "Orph\u00e9e Priv\u00e9",
        "address": "7 Rue Pierre Fontaine, 75009 Paris",
        "latitude": 48.8810281,
        "longitude": 2.3345229
    },
    {
        "name": "Osaba",
        "address": "29 Rue Saint-Placide, 75006 Paris",
        "latitude": 48.8488896,
        "longitude": 2.3255987
    },
    {
        "name": "Outland Bar",
        "address": "6 Rue Emile Lepeu, 75011 Paris",
        "latitude": 48.8556003,
        "longitude": 2.3872734
    },
    {
        "name": "Palissade",
        "address": "36 Rue de Sambre-et-Meuse, 75010 Paris",
        "latitude": 48.8745855,
        "longitude": 2.3725569
    },
    {
        "name": "Paname Art Caf\u00e9",
        "address": "14 Rue de la Fontaine au Roi, 75011 Paris",
        "latitude": 48.8683959,
        "longitude": 2.3699863
    },
    {
        "name": "Paname Brewing Company",
        "address": "41 bis Quai de la Loire, 75019 Paris",
        "latitude": 48.8879131,
        "longitude": 2.3795883
    },
    {
        "name": "Patrick's Le Ballon Vert",
        "address": "33 Rue de Montreuil, 75011 Paris",
        "latitude": 48.8505069,
        "longitude": 2.3861359
    },
    {
        "name": "Le Relais de la Huchette",
        "address": "14 Rue de la Huchette, 75005 Paris",
        "latitude": 48.85294,
        "longitude": 2.3459418
    },
    {
        "name": "Pile ou Face",
        "address": "4 Rue de Douai, 75009 Paris",
        "latitude": 48.8813691,
        "longitude": 2.3358729
    },
    {
        "name": "Pili Pili",
        "address": "70 Rue Jean-Pierre Timbaud, 75011 Paris",
        "latitude": 48.867012,
        "longitude": 2.37505
    },
    {
        "name": "Pinot Grigio",
        "address": "7 Rue Charlemagne, 75004 Paris",
        "latitude": 48.8539545,
        "longitude": 2.3613182
    },
    {
        "name": "Plan B",
        "address": "28 Rue de Lourmel, 75015 Paris",
        "latitude": 48.8489209,
        "longitude": 2.2907534
    },
    {
        "name": "Player One",
        "address": "224 Rue Saint-Denis, 75002 Paris",
        "latitude": 48.8683356,
        "longitude": 2.3520301
    },
    {
        "name": "Point Bar Caf\u00e9",
        "address": "99 Rue Championnet, 75018 Paris",
        "latitude": 48.8957076,
        "longitude": 2.3410761
    },
    {
        "name": "Poup\u00e9e",
        "address": "2 Impasse Berthaud, 75003 Paris",
        "latitude": 48.8613525,
        "longitude": 2.3538244
    },
    {
        "name": "Pub O'Paris",
        "address": "15 Rue Colbert, 78000 Versailles",
        "happyHour": "16:00",
        "latitude": 48.8049685,
        "longitude": 2.126621
    },
    {
        "name": "Pub Saint Hilaire",
        "address": "2 Rue Valette, 75005 Paris",
        "happyHour": "16:00",
        "latitude": 48.8480822,
        "longitude": 2.3469613
    },
    {
        "name": "Pub Saint Michel",
        "address": "19 Quai Saint-Michel, 75005 Paris",
        "happyHour": "17:00",
        "latitude": 48.8533542,
        "longitude": 2.3454662
    },
    {
        "name": "Quai de Bourbon",
        "address": "1 Quai de Bourbon, 75004 Paris",
        "latitude": 48.8524406,
        "longitude": 2.3569317
    },
    {
        "name": "Quetzal Bar",
        "address": "10 Rue de la Verrerie, 75004 Paris",
        "latitude": 48.8572208,
        "longitude": 2.3551092
    },
    {
        "name": "Red House",
        "address": "1bis Rue de la Forge Royale, 75011 Paris",
        "latitude": 48.851259,
        "longitude": 2.3803875
    },
    {
        "name": "Redd Montorgeuil",
        "address": "28 Rue Saint-Sauveur, 75002 Paris",
        "latitude": 48.8662571,
        "longitude": 2.3477085
    },
    {
        "name": "Reset",
        "address": "17 Rue du Cygne, 75001 Paris",
        "latitude": 48.8633731,
        "longitude": 2.3483587
    },
    {
        "name": "R\u00e9sistance",
        "address": "16 Rue Sainte-Croix de la Bretonnerie, 75004 Paris",
        "latitude": 48.8580582,
        "longitude": 2.3567223
    },
    {
        "name": "Rio del Vin",
        "address": "26 Rue Rambuteau, 75003 Paris",
        "latitude": 48.8610476,
        "longitude": 2.3541724
    },
    {
        "name": "Ritz Bar",
        "address": "15 Place Vend\u00f4me, 75001 Paris",
        "latitude": 48.8679858,
        "longitude": 2.3288795
    },
    {
        "name": "Robot bar event",
        "address": "40 Rue des Blancs Manteaux, 75004 Paris",
        "latitude": 48.8597816,
        "longitude": 2.355006
    },
    {
        "name": "Rollin's Pub",
        "address": "18 Rue Rollin, 75005 Paris",
        "latitude": 48.8448584,
        "longitude": 2.3499265
    },
    {
        "name": "Rouge ou Blanc",
        "address": "3 Rue Saint-Sulpice, 75006 Paris",
        "latitude": 48.8514896,
        "longitude": 2.3379706
    },
    {
        "name": "Royal au bar",
        "address": "28 Rue de l'Arcade, 75008 Paris",
        "latitude": 48.8726581,
        "longitude": 2.324014
    },
    {
        "name": "Sahara Caf\u00e9",
        "address": "12 Rue de l'\u00c9peron, 75006 Paris",
        "latitude": 48.8524903,
        "longitude": 2.3405405
    },
    {
        "name": "Sape Bar",
        "address": "12 Boulevard de Denain, 75010 Paris",
        "latitude": 48.879657,
        "longitude": 2.3549177
    },
    {
        "name": "Scilicet",
        "address": "134 Voie Georges Pompidou, 75001 Paris",
        "latitude": 48.8511147,
        "longitude": 2.2793502
    },
    {
        "name": "Serpent A Plume",
        "address": "24 Place des Vosges, 75003 Paris",
        "latitude": 48.8560889,
        "longitude": 2.3666737
    },
    {
        "name": "Sherry Butt",
        "address": "20 Rue Beautreillis, 75004 Paris",
        "latitude": 48.853292,
        "longitude": 2.3640898
    },
    {
        "name": "Smile Bar Drink & Music",
        "address": "24 Rue Pasquier, 75008 Paris",
        "latitude": 48.8728095,
        "longitude": 2.3235937
    },
    {
        "name": "So What / bar f\u00e9minin",
        "address": "30 Rue du Roi de Sicile, 75004 Paris",
        "latitude": 48.8562608,
        "longitude": 2.358286
    },
    {
        "name": "Solera Paris",
        "address": "283 Rue Saint-Jacques, 75005 Paris",
        "latitude": 48.8403103,
        "longitude": 2.3406861
    },
    {
        "name": "Sophomore",
        "address": "4 Rue Gambey, 75011 Paris",
        "latitude": 48.8648785,
        "longitude": 2.3721983
    },
    {
        "name": "Stolly's",
        "address": "16 Rue Cloche Perc\u00e9, 75004 Paris",
        "latitude": 48.8564046,
        "longitude": 2.3573256
    },
    {
        "name": "Sunset Boulevard",
        "address": "26 Boulevard Poissonni\u00e8re, 75009 Paris",
        "latitude": 48.8713935,
        "longitude": 2.3446479
    },
    {
        "name": "Syphax Caf\u00e9",
        "address": "26 Rue de Ch\u00e2teaudun, 75009 Paris",
        "latitude": 48.8761253,
        "longitude": 2.3376602
    },
    {
        "name": "Tappo",
        "address": "19 Rue Commines, 75003 Paris",
        "latitude": 48.8623138,
        "longitude": 2.3664296
    },
    {
        "name": "TDTF Paris",
        "address": "43 Rue Cavendish, 75019 Paris",
        "latitude": 48.8843568,
        "longitude": 2.3787982
    },
    {
        "name": "Teddy's Bar",
        "address": "3 Rue Thouin, 75005 Paris",
        "latitude": 48.845009,
        "longitude": 2.3494007
    },
    {
        "name": "Terra",
        "address": "21 Rue des Gravilliers, 75003 Paris",
        "latitude": 48.8637376,
        "longitude": 2.3569516
    },
    {
        "name": "The Auld Alliance",
        "address": "80 Rue Fran\u00e7ois Miron, 75004 Paris",
        "happyHour": "15:00",
        "latitude": 48.855354,
        "longitude": 2.3591217
    },
    {
        "name": "The Be Bop Bar",
        "address": "89 Rue Legendre, 75017 Paris",
        "latitude": 48.8879408,
        "longitude": 2.3205947
    },
    {
        "name": "The Bottle Shop",
        "address": "5 Rue Trousseau, 75011 Paris",
        "latitude": 48.8511831,
        "longitude": 2.3785314
    },
    {
        "name": "The Bowler",
        "address": "13 Rue d'Artois, 75008 Paris",
        "latitude": 48.8729931,
        "longitude": 2.3075478
    },
    {
        "name": "The BRKLYN",
        "address": "58 Rue Quincampoix, 75004 Paris",
        "latitude": 48.8613787,
        "longitude": 2.3507016
    },
    {
        "name": "The Cambridge Public House",
        "address": "8 Rue de Poitou, 75003 Paris",
        "latitude": 48.8614339,
        "longitude": 2.3641334
    },
    {
        "name": "The Club",
        "address": "24 Rue Surcouf, 75007 Paris",
        "latitude": 48.8604116,
        "longitude": 2.309476
    },
    {
        "name": "The Copper Pub",
        "address": "4 Impasse de la Gait\u00e9, 75014 Paris",
        "happyHour": "16:00",
        "latitude": 48.8404126,
        "longitude": 2.324776
    },
    {
        "name": "The Cricketer",
        "address": "41 Rue des Mathurins, 75008 Paris",
        "happyHour": "17:00",
        "latitude": 48.8732835,
        "longitude": 2.3241298
    },
    {
        "name": "The Financier",
        "address": "15 Rue du D\u00e9part, 75014 Paris",
        "latitude": 48.8426118,
        "longitude": 2.3236764
    },
    {
        "name": "The Green Linnet",
        "address": "8 Avenue Victoria, 75004 Paris",
        "latitude": 48.8573542,
        "longitude": 2.3496122
    },
    {
        "name": "The Hideout",
        "address": "22 Rue du Pot de Fer, 75005 Paris",
        "latitude": 48.8429135,
        "longitude": 2.3483452
    },
    {
        "name": "The Honest Lawyer",
        "address": "176 Rue de la Pompe, 75116 Paris",
        "latitude": 48.8711781,
        "longitude": 2.2835898
    },
    {
        "name": "The Labo",
        "address": "37 Rue des Lombards, 75001 Paris",
        "latitude": 48.8597357,
        "longitude": 2.3476818
    },
    {
        "name": "The Lions",
        "address": "153 Rue du Chevaleret, 75013 Paris",
        "latitude": 48.8325321,
        "longitude": 2.3710839
    },
    {
        "name": "The Mazet",
        "address": "61 Rue Saint-Andr\u00e9 des Arts, 75006 Paris",
        "happyHour": "16:00",
        "latitude": 48.8535375,
        "longitude": 2.3388694
    },
    {
        "name": "The Pure Malt",
        "address": "4 Rue Caron, 75004 Paris",
        "latitude": 48.8550361,
        "longitude": 2.362647
    },
    {
        "name": "The Quiet Man",
        "address": "5 Rue des Haudriettes, 75003 Paris",
        "latitude": 48.8615403,
        "longitude": 2.3575655
    },
    {
        "name": "The Wall",
        "address": "51 Rue Lac\u00e9p\u00e8de, 75005 Paris",
        "happyHour": "15:00",
        "latitude": 48.8442716,
        "longitude": 2.3498696
    },
    {
        "name": "UC-61",
        "address": "4 Rue de l'Arc de Triomphe, 75017 Paris",
        "latitude": 48.8766167,
        "longitude": 2.2939019
    },
    {
        "name": "Un Vinito?",
        "address": "22 Rue R\u00e9aumur, 75003 Paris",
        "latitude": 48.8662155,
        "longitude": 2.352596
    },
    {
        "name": "Underground Coffee & Tatoo",
        "address": "12 Avenue Ledru-Rollin, 75012 Paris",
        "latitude": 48.8462317,
        "longitude": 2.3686307
    },
    {
        "name": "Velvet Bar Paris",
        "address": "43 Rue Saint-Honor\u00e9, 75001 Paris",
        "latitude": 48.8608172,
        "longitude": 2.3454455
    },
    {
        "name": "Villette-Bar",
        "address": "66 Boulevard de la Villette, 75019 Paris",
        "latitude": 48.8751949,
        "longitude": 2.3738372
    },
    {
        "name": "Vins Des Pyr\u00e9n\u00e9es",
        "address": "25 Rue Beautreillis, 75004 Paris",
        "latitude": 48.8536886,
        "longitude": 2.3643812
    },
    {
        "name": "Wall Street - Oberkampf",
        "address": "56 Avenue de la R\u00e9publique, 75011 Paris",
        "latitude": 48.8648752,
        "longitude": 2.3758641
    },
    {
        "name": "Windo Skybar",
        "address": "3 Place du G\u00e9n\u00e9ral K\u0153nig, 75017 Paris",
        "latitude": 48.8805372,
        "longitude": 2.2845671
    },
    {
        "name": "Wine O'Clock",
        "address": "15 Quai des Grands Augustins, 75006 Paris",
        "latitude": 48.8539852,
        "longitude": 2.343546
    },
    {
        "name": "Yono Bar",
        "address": "37 Rue Vieille du Temple, 75004 Paris",
        "latitude": 48.8577487,
        "longitude": 2.3576815
    },
    {
        "name": "Zak bar",
        "address": "3 Rue Victor Letalle, 75020 Paris",
        "latitude": 48.8672723,
        "longitude": 2.3852931
    },
    {
        "name": "Zebaar",
        "address": "41 Rue des Blancs Manteaux, 75004 Paris",
        "latitude": 48.8597001,
        "longitude": 2.3550454
    },
    {
        "name": "Z\u00e9ro Z\u00e9ro",
        "address": "89 Rue Amelot, 75011 Paris",
        "latitude": 48.8604793,
        "longitude": 2.3678362
    },
    {
        "name": "Chez Jeanette",
        "address": "47 Rue du Faubourg Saint-Denis, 75010 Paris",
        "happyHour": "18:00",
        "latitude": 48.8716725,
        "longitude": 2.3535841
    },
    {
        "name": "Le Commerce Caf\u00e9",
        "address": "80 Rue du Commerce, 75015 Paris 15e Arrondissement",
        "latitude": 48.8449438,
        "longitude": 2.2939574
    },
    {
        "name": "Au dernier m\u00e9tro",
        "address": "70 Boulevard de Grenelle, 75015 Paris 15e Arrondissement",
        "happyHour": "17:00",
        "latitude": 48.8503655,
        "longitude": 2.2931274
    },
    {
        "name": "Chez Papa - Gambetta",
        "address": "85 Avenue Gambetta, 75020 Paris 20e Arrondissement",
        "latitude": 48.8656209,
        "longitude": 2.3989408
    },
    {
        "name": "L'\u00e9t\u00e9 en pente douce",
        "address": "8 a Rue Paul Albert, 75018 Paris 18e Arrondissement",
        "latitude": 48.8864157,
        "longitude": 2.3450892
    },
    {
        "name": "L'Escale",
        "address": "34 Rue de Clignancourt, 75018 Paris 18e Arrondissement",
        "latitude": 48.8860617,
        "longitude": 2.3475837
    },
    {
        "name": "Le Z\u00e9ro de Conduite",
        "address": "32 Rue du Th\u00e9\u00e2tre, 75015 Paris 15e Arrondissement",
        "latitude": 48.8494447,
        "longitude": 2.286465
    },
    {
        "name": "La Rotonde - Stalingrad",
        "address": "6 Place de la Bataille de Stalingrad, 75019 Paris 19e Arrondissement",
        "happyHour": "18:00",
        "latitude": 48.8835862,
        "longitude": 2.3696037
    },
    {
        "name": "Le P'tit Bistrot",
        "address": "108 Rue de Menilmontant, 75020 Paris 20e Arrondissement",
        "latitude": 48.8695329,
        "longitude": 2.3933977
    },
    {
        "name": "Les Petites Fl\u00e8ches",
        "address": "49 Rue Jean-Pierre Timbaud, 75011 Paris 11e Arrondissement",
        "latitude": 48.8668128,
        "longitude": 2.3738408
    },
    {
        "name": "Au Comptoir du Temps",
        "address": "35 Avenue Corentin Cariou, 75019 Paris 19e Arrondissement",
        "latitude": 48.89751,
        "longitude": 2.3850771
    },
    {
        "name": "Caf\u00e9 des Concerts",
        "address": "213 Avenue Jean Jaur\u00e8s, 75019 Paris 19e Arrondissement",
        "latitude": 48.8859297,
        "longitude": 2.3820195
    },
    {
        "name": "Le D\u00f4me",
        "address": "4 Avenue de Villiers, 75017 Paris 17e Arrondissement",
        "latitude": 48.8816235,
        "longitude": 2.3157646
    },
    {
        "name": "Formidable",
        "address": "2 Avenue Jean Jaur\u00e8s, 75019 Paris 19e Arrondissement",
        "happyHour": "17:00",
        "latitude": 48.8827355,
        "longitude": 2.3706239
    },
    {
        "name": "B\u00f4 Zinc Caf\u00e9",
        "address": "59 Avenue Mozart, 75016 Paris 16e Arrondissement",
        "latitude": 48.8545143,
        "longitude": 2.2694205
    },
    {
        "name": "La Gare Jazz",
        "address": "1 Avenue Corentin Cariou, 75019 Paris 19e Arrondissement",
        "latitude": 48.8949353,
        "longitude": 2.3821449
    },
    {
        "name": "Le Nouvel Institut",
        "address": "1 Boulevard Saint-Germain, 75005 Paris",
        "happyHour": "16:00",
        "price": "3,00",
        "latitude": 48.8492582,
        "longitude": 2.3555969
    },
    {
        "name": "The Long Hop",
        "address": "25 Rue Fr\u00e9d\u00e9ric Sauton, 75005 Paris",
        "happyHour": "16:00",
        "price": "5,00",
        "latitude": 48.8505257,
        "longitude": 2.3489786
    },
    {
        "name": "Le Central Paris",
        "address": "40 Rue Cler, 75007 Paris",
        "happyHour": "17:00",
        "price": "7,00",
        "latitude": 48.8564566,
        "longitude": 2.306485
    },
    {
        "name": "Le Barricou",
        "address": "1 Boulevard du Temple, 75003 Paris",
        "happyHour": "17:00",
        "price": "5,00",
        "latitude": 48.8631337,
        "longitude": 2.3664611
    },
    {
        "name": "Le Court Circuit",
        "address": "51 Avenue Gambetta, 75020 Paris 20e Arrondissement",
        "happyHour": "18:00",
        "price": "5,00",
        "latitude": 48.864676,
        "longitude": 2.3941543
    },
    {
        "name": "Le 7eme B\u2019Art",
        "address": "19 Rue de Choiseul, 75002 Paris 2e Arrondissement",
        "price": "4,50",
        "latitude": 48.870302,
        "longitude": 2.3359056
    },
    {
        "name": "\u00c0 la Folie",
        "address": "26 Avenue Corentin Cariou, 75019 Paris 19e Arrondissement",
        "price": "6,00",
        "latitude": 48.8974799,
        "longitude": 2.3855854
    },
    {
        "name": "La Petite Halle",
        "address": "211 Avenue Jean Jaur\u00e8s, 75019 Paris 19e Arrondissement",
        "happyHour": "17:00",
        "price": "5,00",
        "latitude": 48.89420775,
        "longitude": 2.3931778180311785
    },
    {
        "name": "Le Caf\u00e9 d'Avant",
        "address": "35 Rue Claude Bernard, 75005 Paris 5e Arrondissement",
        "happyHour": "16:30",
        "price": "3,50",
        "latitude": 48.8396911,
        "longitude": 2.3472725
    },
    {
        "name": "aveK",
        "address": "21 Rue Saint-Sauveur, 75002 Paris",
        "happyHour": "18:00",
        "latitude": 48.865964,
        "longitude": 2.3488784
    },
    {
        "name": "Dernier Bar avant la Fin du Monde",
        "address": "19 Avenue Victoria, 75001 Paris",
        "happyHour": "22:30",
        "price": "5,00",
        "latitude": 48.8579242,
        "longitude": 2.3464679
    },
    {
        "name": "Acad\u00e9mie de la bi\u00e8re",
        "address": "88Bis Boulevard de Port-Royal, 75005 Paris",
        "happyHour": "15:00",
        "price": "5,50",
        "latitude": 48.836936,
        "longitude": 2.3505855
    },
    {
        "name": "Black Dog",
        "address": "26 Rue des Lombards, 75004 Paris",
        "happyHour": "17:00",
        "price": "3,50",
        "latitude": 48.8594147,
        "longitude": 2.3492122
    },
    {
        "name": "Le Bistrot du Forum",
        "address": "12 Rue Montmartre, 75001 Paris",
        "happyHour": "16:00",
        "price": "3,90",
        "latitude": 48.8636981,
        "longitude": 2.3458363
    },
    {
        "name": "Chai Antoine",
        "address": "4 Rue des Canettes, 75006 Paris",
        "happyHour": "18:00",
        "price": "5,00",
        "latitude": 48.8524808,
        "longitude": 2.3336432
    },
    {
        "name": "Le Motel",
        "address": "8 Passage Josset, 75011 Paris",
        "price": "5,00",
        "latitude": 48.8527026,
        "longitude": 2.3765031
    },
    {
        "name": "Upper Caf\u00e9",
        "address": "5 Rue de Clichy, 75009 Paris",
        "happyHour": "17:00",
        "price": "6,00",
        "latitude": 48.8768477,
        "longitude": 2.3307237
    },
    {
        "name": "Objectif Lune",
        "address": "19 Rue de la Roquette, 75011 Paris",
        "happyHour": "18:00",
        "price": "3,00",
        "latitude": 48.8545675,
        "longitude": 2.3719137
    },
    {
        "name": "Le Requin Chagrin",
        "address": "10 Rue Mouffetard, 75005 Paris",
        "latitude": 48.8445916,
        "longitude": 2.3491648
    },
    {
        "name": "Le Biscornu",
        "address": "87-89 Rue Montmartre, 75002 Paris",
        "happyHour": "Happy hour en cours jusqu'\u00e0 02:00",
        "price": "4,50",
        "latitude": 48.8701527,
        "longitude": 2.3427229
    },
    {
        "name": "La Bombe",
        "address": "20 Rue du 4 Septembre, 75002 Paris",
        "happyHour": "17:00",
        "latitude": 48.8698287,
        "longitude": 2.3357265
    },
    {
        "name": "Le Paname",
        "address": "15 Rue Pierre Lescot, 75001 Paris",
        "happyHour": "17:00",
        "latitude": 48.8630346,
        "longitude": 2.3486601
    },
    {
        "name": "River Bar",
        "address": "40 Rue Descartes, 75005 Paris",
        "happyHour": "16:00",
        "price": "3,50",
        "latitude": 48.8456688,
        "longitude": 2.3490989
    },
    {
        "name": "Le Crocodile Vert",
        "address": "6 Rue du Hameau, 75015 Paris",
        "happyHour": "18:45",
        "latitude": 48.8354932,
        "longitude": 2.2892815236877695
    },
    {
        "name": "La Grosse Caisse",
        "address": "160 Rue Montmartre, 75002 Paris",
        "price": "4,50",
        "latitude": 48.8701731,
        "longitude": 2.34286
    },
    {
        "name": "Little Big Bear",
        "address": "45 Rue Monsieur le Prince, 75006 Paris",
        "price": "4,00",
        "latitude": 48.849561,
        "longitude": 2.3402116
    },
    {
        "name": "L'Antidote",
        "address": "45 Rue Descartes, 75005 Paris",
        "happyHour": "18:00",
        "price": "5,00",
        "latitude": 48.8452748,
        "longitude": 2.3491661
    },
    {
        "name": "Caf\u00e9 Charbon",
        "address": "109 Rue Oberkampf, 75011 Paris",
        "happyHour": "16:30",
        "price": "4,00",
        "latitude": 48.866723,
        "longitude": 2.3817382
    },
    {
        "name": "TDTF",
        "address": "43 Rue Cavendish, 75019 Paris",
        "happyHour": "17:00",
        "price": "3,50",
        "latitude": 48.8843568,
        "longitude": 2.3787982
    },
    {
        "name": "Mamie Paris",
        "address": "11 Rue de la Ferronnerie, 75001 Paris",
        "happyHour": "17:00",
        "price": "4,00",
        "latitude": 48.8602898,
        "longitude": 2.3473292
    },
    {
        "name": "Le Cristal Bar",
        "address": "35 Rue Louis Blanc, 75010 Paris",
        "happyHour": "17:00",
        "price": "4,00",
        "latitude": 48.8811654,
        "longitude": 2.3648387
    },
    {
        "name": "Au fil du vin",
        "address": "145 Quai de Valmy, 75010 Paris",
        "happyHour": "17:00",
        "price": "5,00",
        "latitude": 48.8775996,
        "longitude": 2.3652155
    },
    {
        "name": "Ap\u00e9ro Saint-Martin",
        "address": "104 Quai de Jemmapes, 75010 Paris",
        "price": "5,00",
        "latitude": 48.8737038,
        "longitude": 2.3639348
    },
    {
        "name": "H\u00f4tel du Nord",
        "address": "102 Quai de Jemmapes, 75010 Paris",
        "happyHour": "18:00",
        "price": "6,00",
        "latitude": 48.873544,
        "longitude": 2.3640592
    },
    {
        "name": "Le 17",
        "address": "17 Boulevard de Magenta, 75010 Paris",
        "happyHour": "17:00",
        "price": "3,50",
        "latitude": 48.8705009,
        "longitude": 2.3610037
    },
    {
        "name": "Delaville Caf\u00e9",
        "address": "34 Boulevard de Bonne Nouvelle, 75010 Paris",
        "happyHour": "16:00",
        "price": "5,00",
        "latitude": 48.8706972,
        "longitude": 2.3493744
    },
    {
        "name": "Indiana Caf\u00e9 - Bonne Nouvelle",
        "address": "42 Bis Boulevard de Bonne Nouvelle, 75010 Paris",
        "happyHour": "17:00",
        "price": "4,60",
        "latitude": 48.8707938,
        "longitude": 2.348241
    },
    {
        "name": "Le Cardinal",
        "address": "1 Boulevard des Italiens, 75002 Paris",
        "happyHour": "16:00",
        "latitude": 48.8717712,
        "longitude": 2.3397766
    },
    {
        "name": "Le Petit Cluny",
        "address": "19 Boulevard Saint-Michel, 75005 Paris",
        "happyHour": "18:00",
        "price": "5,00",
        "latitude": 48.8516383,
        "longitude": 2.3434996
    },
    {
        "name": "Monk - La Taverne de Cluny",
        "address": "51 Rue de la Harpe, 75005 Paris",
        "happyHour": "16:00",
        "price": "4,50",
        "latitude": 48.8515956,
        "longitude": 2.3438739
    },
    {
        "name": "La Petite Hostellerie",
        "address": "35 Rue de la Harpe, 75005 Paris",
        "happyHour": "18:00",
        "price": "5,00",
        "latitude": 48.8520824,
        "longitude": 2.3443904
    },
    {
        "name": "Le Bistrot du Centre",
        "address": "131 Rue Saint-Martin, 75004 Paris",
        "happyHour": "17:00",
        "price": "5,00",
        "latitude": 48.8568807,
        "longitude": 2.3490177
    },
    {
        "name": "Le Second Empire",
        "address": "62 Rue de la Verrerie, 75004 Paris",
        "happyHour": "18:00",
        "price": "5,50",
        "latitude": 48.858468,
        "longitude": 2.3517469
    },
    {
        "name": "Caf\u00e9 des Dames",
        "address": "6 Place du Colonel Fabien, 75019 Paris",
        "happyHour": "17:00",
        "price": "5,50",
        "latitude": 48.8782318,
        "longitude": 2.370948
    },
    {
        "name": "Dynamo",
        "address": "104 Avenue Simon Bolivar, 75019 Paris",
        "happyHour": "16:00",
        "price": "5,00",
        "latitude": 48.8786304,
        "longitude": 2.3744361
    },
    {
        "name": "Les Chics Types",
        "address": "20 Avenue de Laumi\u00e8re, 75019 Paris",
        "happyHour": "17:00",
        "price": "5,00",
        "latitude": 48.883282,
        "longitude": 2.3810584
    },
    {
        "name": "Bistrot Lumi\u00e8re",
        "address": "96 Avenue Jean Jaur\u00e8s, 75019 Paris",
        "happyHour": "16:00",
        "price": "5,00",
        "latitude": 48.8851325,
        "longitude": 2.3797534
    },
    {
        "name": "Le 99 Caf\u00e9",
        "address": "99 Rue Saint-Lazare, 75000 Paris",
        "happyHour": "16:00",
        "price": "6,50",
        "latitude": 48.8756624,
        "longitude": 2.3282472
    },
    {
        "name": "Caf\u00e9 du Mogador",
        "address": "57 Rue de la Chauss\u00e9e d'Antin, 75009 Paris",
        "happyHour": "17:00",
        "latitude": 48.8760631,
        "longitude": 2.3318425
    },
    {
        "name": "Le Havane",
        "address": "102 Rue Montorgueil, 75002 Paris",
        "happyHour": "17:00",
        "price": "6,00",
        "latitude": 48.8662801,
        "longitude": 2.3472256
    },
    {
        "name": "Les Turbines",
        "address": "21 Rue de Turbigo, 75002 Paris",
        "happyHour": "17:00",
        "price": "5,00",
        "latitude": 48.8641585,
        "longitude": 2.3499226
    },
    {
        "name": "The Frog & Rosbif",
        "address": "16 Rue Saint-Denis, 75002 Paris",
        "happyHour": "17:00",
        "price": "5,00",
        "latitude": 48.8695398,
        "longitude": 2.3525473
    },
    {
        "name": "Le Grand Cerf",
        "address": "77 Boulevard de S\u00e9bastopol, 75002 Paris",
        "happyHour": "16:00",
        "price": "5,80",
        "latitude": 48.8640699,
        "longitude": 2.3510996
    },
    {
        "name": "Le Spicy Home",
        "address": "65 Boulevard de S\u00e9bastopol, 75001 Paris",
        "happyHour": "15:00",
        "price": "5,00",
        "latitude": 48.8582149,
        "longitude": 2.3479682
    },
    {
        "name": "Hall's Beer Tavern",
        "address": "68 Rue Saint-Denis, 75001 Paris",
        "happyHour": "15:00",
        "price": "4,90",
        "latitude": 48.8589387,
        "longitude": 2.3476662
    },
    {
        "name": "Aux Trois Maillets",
        "address": "67 Rue Saint-Denis, 75001 Paris",
        "happyHour": "Happy hour en cours jusqu'\u00e0 00:00",
        "price": "5,50",
        "latitude": 48.8589387,
        "longitude": 2.3476662
    },
    {
        "name": "Le Galant",
        "address": "7 Rue de la Cossonnerie, 75001 Paris",
        "happyHour": "15:00",
        "price": "5,50",
        "latitude": 48.8613869,
        "longitude": 2.3486486
    },
    {
        "name": "McBrides Irish Pub",
        "address": "54 Rue Saint-Denis, 75001 Paris",
        "happyHour": "17:00",
        "price": "5,50",
        "latitude": 48.8610015,
        "longitude": 2.3488322
    },
    {
        "name": "Le Paradis",
        "address": "76 Rue Saint-Martin, 75004 Paris",
        "happyHour": "16:30",
        "price": "5,90",
        "latitude": 48.8568807,
        "longitude": 2.3490177
    },
    {
        "name": "Le Verre Luisant",
        "address": "64 Rue de la Verrerie, 75004 Paris",
        "happyHour": "17:30",
        "price": "5,50",
        "latitude": 48.8585262,
        "longitude": 2.3515924
    },
    {
        "name": "Le Renard Caf\u00e9",
        "address": "6 Rue du Renard, 75004 Paris",
        "happyHour": "15:00",
        "price": "4,50",
        "latitude": 48.8581137,
        "longitude": 2.3519339
    },
    {
        "name": "Le Rallye Tournelle",
        "address": "11 Quai de la Tournelle, 75005 Paris",
        "happyHour": "16:00",
        "price": "4,00",
        "latitude": 48.8497362,
        "longitude": 2.3553458
    },
    {
        "name": "French Eyes",
        "address": "5 Place Jean - Michel Basquiat, 75013 Paris",
        "happyHour": "16:00",
        "price": "4,00",
        "latitude": 48.8311822,
        "longitude": 2.3751886
    },
    {
        "name": "EP7",
        "address": "133 Avenue de France, 75013 Paris",
        "happyHour": "18:00",
        "price": "5,50",
        "latitude": 48.8314604,
        "longitude": 2.3754741
    },
    {
        "name": "The Frog & British Library",
        "address": "14 Avenue de France, 75013 Paris",
        "happyHour": "17:00",
        "price": "5,00",
        "latitude": 48.8262886,
        "longitude": 2.3812264
    },
    {
        "name": "Un Bistrot en Ville",
        "address": "11 Rue de Moscou, 75008 Paris",
        "happyHour": "18:00",
        "price": "6,10",
        "latitude": 48.8818356,
        "longitude": 2.3224864
    },
    {
        "name": "L'Escapade",
        "address": "25 Avenue Duquesne, 75007 Paris",
        "happyHour": "15:00",
        "price": "3,00",
        "latitude": 48.8525334,
        "longitude": 2.3091756
    },
    {
        "name": "Le Petit Mont Cenis",
        "address": "94 Rue du Mont-Cenis, 75018 Paris",
        "happyHour": "17:00",
        "price": "3,50",
        "latitude": 48.8947489,
        "longitude": 2.3456801
    },
    {
        "name": "La M\u00e9canique des Fluides",
        "address": "17 Rue de Mazagran, 75010 Paris",
        "happyHour": "17:00",
        "price": "4,00",
        "latitude": 48.8709915,
        "longitude": 2.3519938
    },
    {
        "name": "Yellow Mad Monkey",
        "address": "8 Rue de Lappe, 75011 Paris",
        "happyHour": "17:00",
        "price": "5,00",
        "latitude": 48.8540826,
        "longitude": 2.371857
    },
    {
        "name": "Le Gob",
        "address": "58 Avenue des Gobelins, 75013 Paris",
        "happyHour": "17:00",
        "price": "3,90",
        "latitude": 48.8335695,
        "longitude": 2.3537937
    },
    {
        "name": "Les Deux Stations",
        "address": "131 Boulevard Exelmans, 75016 Paris",
        "happyHour": "17:00",
        "price": "4,00",
        "latitude": 48.8473372,
        "longitude": 2.2589419
    },
    {
        "name": "Danube Bleu",
        "address": "47 Rue de Tr\u00e9vise, 75009 Paris",
        "happyHour": "15:00",
        "price": "4,00",
        "latitude": 48.8757556,
        "longitude": 2.345452
    },
    {
        "name": "Le Vieux Ch\u00eane",
        "address": "69 Rue Mouffetard, 75005 Paris",
        "happyHour": "16:00",
        "price": "5,50",
        "latitude": 48.8423354,
        "longitude": 2.3498202
    },
    {
        "name": "Murphy",
        "address": "3 Rue du Maine, 75014 Paris",
        "price": "4,50",
        "latitude": 48.8405272,
        "longitude": 2.3236008
    },
    {
        "name": "Le Dock Bar",
        "address": "25 Rue Louis le Grand, 75002 Paris",
        "happyHour": "17:00",
        "price": "4,50",
        "latitude": 48.870545,
        "longitude": 2.3340538
    },
    {
        "name": "Au coeur couronne",
        "address": "6 Rue de la Ferronnerie, 75001 Paris",
        "happyHour": "17:00",
        "price": "5,50",
        "latitude": 48.8602898,
        "longitude": 2.3473292
    },
    {
        "name": "Al\u00e9gria",
        "address": "17 Rue Guisarde, 75006 Paris",
        "price": "6,00",
        "latitude": 48.8518393,
        "longitude": 2.3342524
    },
    {
        "name": "Arbane",
        "address": "10 Rue Gu\u00e9n\u00e9gaud, 75006 Paris",
        "happyHour": "18:30",
        "latitude": 48.8556365,
        "longitude": 2.3383665
    },
    {
        "name": "Archi'Bar",
        "address": "59 Rue des Archives, 75003 Paris",
        "happyHour": "17:00",
        "price": "3,00",
        "latitude": 48.8618932,
        "longitude": 2.3588068
    },
    {
        "name": "Au Bon Endroit Bar",
        "address": "12 Rue des Goncourt, 75011 Paris",
        "happyHour": "17:00",
        "price": "3,00",
        "latitude": 48.8697629,
        "longitude": 2.3719754
    },
    {
        "name": "Au C\u0153ur du Marais",
        "address": "56 Rue des Archives, 75004 Paris",
        "happyHour": "17:00",
        "price": "6,00",
        "latitude": 48.8599753,
        "longitude": 2.3568642
    },
    {
        "name": "Au Coin !",
        "address": "2 Rue H\u00e9l\u00e8ne et Fran\u00e7ois Missoffe, 75017 Paris",
        "happyHour": "17:00",
        "price": "5,00",
        "latitude": 48.8999588,
        "longitude": 2.3216114
    },
    {
        "name": "Au Garage \u00e0 V\u00e9los",
        "address": "19 Rue G\u00e9rando, 75009 Paris",
        "price": "5,00",
        "latitude": 48.8829117,
        "longitude": 2.3463242
    },
    {
        "name": "Au P\u00e8re Fouettard",
        "address": "9 Rue Pierre Lescot, 75001 Paris",
        "happyHour": "15:00",
        "latitude": 48.8625821,
        "longitude": 2.3483927
    },
    {
        "name": "Au Taquet",
        "address": "19 Rue Bleue, 75009 Paris",
        "happyHour": "16:00",
        "price": "2,90",
        "latitude": 48.8758755,
        "longitude": 2.3458619
    },
    {
        "name": "Au Timbre Poste",
        "address": "1 Rue Rouget de Lisle, 92240 Malakoff",
        "happyHour": "15:00",
        "price": "5,50",
        "latitude": 48.8239052,
        "longitude": 2.3041683
    },
    {
        "name": "Australian Bar",
        "address": "18 Rue Saint-Denis, 75001 Paris",
        "happyHour": "17:00",
        "price": "6,00",
        "latitude": 48.8593837,
        "longitude": 2.3479495
    },
    {
        "name": "Aux Noctambules",
        "address": "24 Boulevard de Clichy, 75018 Paris",
        "happyHour": "16:00",
        "price": "4,00",
        "latitude": 48.8826373,
        "longitude": 2.3371761
    },
    {
        "name": "Baby doll",
        "address": "16 Rue Daunou, 75002 Paris",
        "latitude": 48.8698006,
        "longitude": 2.3311106
    },
    {
        "name": "Baker Street Pub",
        "address": "9 Rue des Boulangers, 75005 Paris",
        "happyHour": "16:00",
        "price": "4,00",
        "latitude": 48.8458302,
        "longitude": 2.3539337
    },
    {
        "name": "Bar & Beer - Bercy",
        "address": "4 Rue du Charolais, 75012 Paris",
        "happyHour": "16:00",
        "price": "5,00",
        "latitude": 48.8393963,
        "longitude": 2.387768
    },
    {
        "name": "Bar & Beer - M\u00e9nilmontant",
        "address": "48 Boulevard de M\u00e9nilmontant, 75020 Paris",
        "happyHour": "16:00",
        "price": "5,00",
        "latitude": 48.8640934,
        "longitude": 2.386216
    },
    {
        "name": "Bar \u00e0 Mines",
        "address": "64 Rue de Charenton, 75012 Paris",
        "happyHour": "16:00",
        "price": "3,00",
        "latitude": 48.8494562,
        "longitude": 2.3744031
    },
    {
        "name": "Bar des Halles",
        "address": "71 Rue Saint-Honor\u00e9, 75001 Paris",
        "happyHour": "18:00",
        "price": "4,50",
        "latitude": 48.8611078,
        "longitude": 2.3442771
    },
    {
        "name": "Barberousse",
        "address": "60 Rue Quincampoix, 75004 Paris",
        "latitude": 48.8615802,
        "longitude": 2.3508078
    },
    {
        "name": "BAROOM",
        "address": "21 Rue de la Roquette, 75011 Paris",
        "happyHour": "15:00",
        "price": "5,00",
        "latitude": 48.854679,
        "longitude": 2.3722447
    },
    {
        "name": "Bears' den",
        "address": "6 Rue des Lombards, 75004 Paris",
        "happyHour": "17:00",
        "price": "4,40",
        "latitude": 48.859108,
        "longitude": 2.350016
    },
    {
        "name": "Belushi's",
        "address": "159 Rue de Crim\u00e9e, 75019 Paris",
        "happyHour": "16:00",
        "price": "5,00",
        "latitude": 48.8885905,
        "longitude": 2.3789635
    },
    {
        "name": "Bistrot Des Artistes",
        "address": "6 Rue des Anglais, 75005 Paris",
        "happyHour": "17:00",
        "price": "3,00",
        "latitude": 48.8508387,
        "longitude": 2.3477502
    },
    {
        "name": "Bistrot mon Caf\u00e9",
        "address": "182 Rue du Faubourg Saint-Antoine, 75012 Paris",
        "happyHour": "17:00",
        "price": "5,00",
        "latitude": 48.8501425,
        "longitude": 2.382752254769408
    },
    {
        "name": "Brasserie Lola",
        "address": "99 Rue du Th\u00e9\u00e2tre, 75015 Paris",
        "happyHour": "16:00",
        "price": "4,50",
        "latitude": 48.8467657,
        "longitude": 2.2938259
    },
    {
        "name": "Brasserie O'Neil",
        "address": "20 Rue des Canettes, 75006 Paris",
        "happyHour": "16:00",
        "price": "4,20",
        "latitude": 48.851846,
        "longitude": 2.3336845
    },
    {
        "name": "Brewberry",
        "address": "11 Rue du Pot de Fer, 75005 Paris",
        "price": "7,20",
        "latitude": 48.8429034,
        "longitude": 2.3485256
    },
    {
        "name": "Caf\u00e9 Ch\u00e9ri",
        "address": "44 Boulevard de la Villette, 75019 Paris",
        "happyHour": "17:00",
        "price": "4,00",
        "latitude": 48.874089,
        "longitude": 2.3752436
    },
    {
        "name": "Caf\u00e9 du Ch\u00e2telet",
        "address": "8 Rue Saint-Denis, 75001 Paris",
        "happyHour": "17:00",
        "price": "6,00",
        "latitude": 48.8584398,
        "longitude": 2.3475072
    },
    {
        "name": "Caf\u00e9 Mama Kin",
        "address": "13 Rue de Thionville, 75019 Paris",
        "happyHour": "16:00",
        "price": "4,80",
        "latitude": 48.8906018,
        "longitude": 2.3868373
    },
    {
        "name": "Caf\u00e9 M\u00e9nilmontant",
        "address": "143 Boulevard de M\u00e9nilmontant, 75011 Paris",
        "price": "4,00",
        "latitude": 48.8667688,
        "longitude": 2.3827156
    },
    {
        "name": "Caf\u00e9 Oz - Ch\u00e2telet",
        "address": "18 Rue Saint-Denis, 75001 Paris",
        "happyHour": "17:00",
        "price": "6,00",
        "latitude": 48.8593837,
        "longitude": 2.3479495
    },
    {
        "name": "Caf\u00e9 Oz - Denfert",
        "address": "3 Place Denfert-Rochereau, 75014 Paris",
        "happyHour": "16:00",
        "price": "6,00",
        "latitude": 48.8332913,
        "longitude": 2.3338394
    },
    {
        "name": "Caf\u00e9 Oz - Grands Boulevards",
        "address": "8 Boulevard Montmartre, 75009 Paris",
        "happyHour": "16:00",
        "price": "6,00",
        "latitude": 48.8717988,
        "longitude": 2.342289
    },
    {
        "name": "Caf\u00e9 Oz - Rooftop",
        "address": "34 Quai d'Austerlitz, 75013 Paris",
        "happyHour": "16:00",
        "price": "6,00",
        "latitude": 48.8407663,
        "longitude": 2.370067617040224
    },
    {
        "name": "Caf\u00e9 Voulez-Vous",
        "address": "18 Rue du Temple, 75004 Paris",
        "happyHour": "18:00",
        "price": "4,20",
        "latitude": 48.8585458,
        "longitude": 2.3534838
    },
    {
        "name": "Capitole Caf\u00e9",
        "address": "105 Boulevard de S\u00e9bastopol, 75002 Paris",
        "happyHour": "17:00",
        "price": "5,50",
        "latitude": 48.8664575,
        "longitude": 2.3524379
    },
    {
        "name": "Carpe Diem Caf\u00e9",
        "address": "21 Rue des Halles, 75001 Paris",
        "happyHour": "17:00",
        "price": "5,00",
        "latitude": 48.8605555,
        "longitude": 2.3458604
    },
    {
        "name": "Chai D'adrien",
        "address": "39 Boulevard du Temple, 75011 Paris",
        "happyHour": "17:00",
        "price": "4,50",
        "latitude": 48.8660249,
        "longitude": 2.3647181
    },
    {
        "name": "Chapi Chapo",
        "address": "50 Rue Descartes, 75005 Paris",
        "happyHour": "17:00",
        "price": "4,00",
        "latitude": 48.8452055,
        "longitude": 2.3490752
    },
    {
        "name": "Charlie et sa bi\u00e8re \u00e0 deux balles",
        "address": "52 Rue Saint-S\u00e9bastien, 75011 Paris",
        "price": "3,50",
        "latitude": 48.862227,
        "longitude": 2.3732857
    },
    {
        "name": "Chez Camille",
        "address": "8 Rue Ravignan, 75018 Paris",
        "happyHour": "18:30",
        "price": "5,00",
        "latitude": 48.8855141,
        "longitude": 2.3379729
    },
    {
        "name": "Chez Georges",
        "address": "11 Rue des Canettes, 75006 Paris",
        "happyHour": "17:00",
        "latitude": 48.8521815,
        "longitude": 2.3337365
    },
    {
        "name": "Club Banana Caf\u00e9",
        "address": "13 Rue de la Ferronnerie, 75001 Paris",
        "happyHour": "17:00",
        "price": "4,00",
        "latitude": 48.8602898,
        "longitude": 2.3473292
    },
    {
        "name": "Code Bar",
        "address": "6 Rue de Lappe, 75011 Paris",
        "happyHour": "17:00",
        "price": "4,00",
        "latitude": 48.8541563,
        "longitude": 2.3717064
    },
    {
        "name": "Com\u00e9die Caf\u00e9",
        "address": "31 Rue Pierre Fontaine, 75009 Paris",
        "happyHour": "18:00",
        "price": "4,00",
        "latitude": 48.8826923,
        "longitude": 2.3332018
    },
    {
        "name": "Corcoran's - Grands Boulevards",
        "address": "23 Boulevard Poissonni\u00e8re, 75002 Paris",
        "happyHour": "17:00",
        "price": "6,00",
        "latitude": 48.8711453,
        "longitude": 2.3441652
    },
    {
        "name": "Corcoran's - Lilas",
        "address": "Place du Maquis du Vercors, 75020 Paris",
        "happyHour": "17:00",
        "price": "5,50",
        "latitude": 48.8775874,
        "longitude": 2.4082945
    },
    {
        "name": "Corcoran's - Saint Michel",
        "address": "28 Rue Saint-Andr\u00e9 des Arts, 75006 Paris",
        "happyHour": "17:00",
        "price": "6,00",
        "latitude": 48.8533299,
        "longitude": 2.3424383
    },
    {
        "name": "Cubana Caf\u00e9",
        "address": "47 Rue Vavin, 75006 Paris",
        "happyHour": "16:00",
        "price": "4,20",
        "latitude": 48.8426526,
        "longitude": 2.3288083
    },
    {
        "name": "Dalea",
        "address": "13 Boulevard Edgar Quinet, 75014 Paris",
        "happyHour": "16:00",
        "price": "5,00",
        "latitude": 48.8410314,
        "longitude": 2.3245006
    },
    {
        "name": "Dame Tartine",
        "address": "2 Rue Brisemiche, 75004 Paris",
        "happyHour": "17:00",
        "price": "5,00",
        "latitude": 48.8592199,
        "longitude": 2.3516027
    },
    {
        "name": "Deux Point Z\u00e9ro",
        "address": "7 Rue Blondel, 75003 Paris",
        "price": "5,00",
        "latitude": 48.8685638,
        "longitude": 2.3543352
    },
    {
        "name": "Dr Feelgood Rock Bar",
        "address": "34 Rue Keller, 75011 Paris",
        "happyHour": "17:00",
        "price": "4,50",
        "latitude": 48.8552911,
        "longitude": 2.3755501
    },
    {
        "name": "Dupont Caf\u00e9",
        "address": "198 Rue de la Convention, 75015 Paris",
        "happyHour": "18:00",
        "price": "5,00",
        "latitude": 48.8372002,
        "longitude": 2.2960597
    },
    {
        "name": "Eden Park Pub",
        "address": "10 Rue Princesse, 75006 Paris",
        "happyHour": "18:00",
        "price": "5,00",
        "latitude": 48.8523543,
        "longitude": 2.3344595
    },
    {
        "name": "FAT. BAR",
        "address": "8 Rue de Beauce, 75003 Paris",
        "price": "6,00",
        "latitude": 48.8627429,
        "longitude": 2.361079
    },
    {
        "name": "freemousse.bar",
        "address": "76 Rue Marcadet, 75018 Paris",
        "happyHour": "17:00",
        "price": "7,00",
        "latitude": 48.8903736,
        "longitude": 2.3472066
    },
    {
        "name": "Frog Hop House",
        "address": "10 Rue des Capucines, 75002 Paris",
        "happyHour": "17:00",
        "latitude": 48.8688361,
        "longitude": 2.3296197
    },
    {
        "name": "Frog Revolution",
        "address": "9 Rue de la Bastille, 75004 Paris",
        "happyHour": "17:00",
        "latitude": 48.8538728,
        "longitude": 2.3682637
    },
    {
        "name": "Frog XVI",
        "address": "110 bis Avenue Kl\u00e9ber, 75016 Paris",
        "happyHour": "17:00",
        "latitude": 48.8646895,
        "longitude": 2.2880988
    },
    {
        "name": "Georges caf\u00e9",
        "address": "4 Rue de la Huchette, 75005 Paris",
        "happyHour": "16:00",
        "price": "5,00",
        "latitude": 48.8528484,
        "longitude": 2.346361
    },
    {
        "name": "Havanita",
        "address": "11 Rue de Lappe, 75011 Paris",
        "happyHour": "17:00",
        "price": "5,50",
        "latitude": 48.8539711,
        "longitude": 2.3722193
    },
    {
        "name": "Heure Sup'",
        "address": "299 Rue Lecourbe, 75015 Paris",
        "price": "5,50",
        "latitude": 48.8378163,
        "longitude": 2.2870256
    },
    {
        "name": "Hide Pub",
        "address": "46 Rue des Lombards, 75001 Paris",
        "happyHour": "15:00",
        "price": "3,00",
        "latitude": 48.8598155,
        "longitude": 2.3476419
    },
    {
        "name": "Hideout - Montparnasse",
        "address": "33 Rue de la Gait\u00e9, 75014 Paris",
        "happyHour": "17:00",
        "price": "4,00",
        "latitude": 48.8391999,
        "longitude": 2.3232721
    },
    {
        "name": "Hookah Bar",
        "address": "40 Boulevard de Bonne Nouvelle, 75010 Paris",
        "happyHour": "15:00",
        "latitude": 48.8707491,
        "longitude": 2.348609
    },
    {
        "name": "HyperBol",
        "address": "14 Rue des Pr\u00eacheurs, 75001 Paris",
        "happyHour": "18:00",
        "price": "6,50",
        "latitude": 48.8620749,
        "longitude": 2.3486452
    },
    {
        "name": "Improvibar",
        "address": "3 Rue Geoffroy l'Angevin, 75004 Paris",
        "happyHour": "18:00",
        "price": "4,00",
        "latitude": 48.8605552,
        "longitude": 2.3544304
    },
    {
        "name": "Indiana Caf\u00e9 - Bastille",
        "address": "14 Place de la Bastille, 75011 Paris",
        "happyHour": "17:00",
        "price": "4,60",
        "latitude": 48.8535537,
        "longitude": 2.3693008
    },
    {
        "name": "Indiana Caf\u00e9 - Denfert-Rochereau",
        "address": "1 Bis Avenue du G\u00e9n\u00e9ral Leclerc, 75014 Paris",
        "happyHour": "17:00",
        "price": "4,60",
        "latitude": 48.8261277,
        "longitude": 2.3262891
    },
    {
        "name": "Indiana Caf\u00e9 - Les Halles",
        "address": "35 Rue du Pont Neuf, 75001 Paris",
        "happyHour": "17:00",
        "price": "4,60",
        "latitude": 48.8614965,
        "longitude": 2.3447494
    },
    {
        "name": "Indiana Caf\u00e9 - Montparnasse",
        "address": "72 Boulevard du Montparnasse, 75014 Paris",
        "happyHour": "17:00",
        "price": "4,60",
        "latitude": 48.8396312,
        "longitude": 2.3366719
    },
    {
        "name": "Indiana Caf\u00e9 - R\u00e9publique",
        "address": "1 Place de la R\u00e9publique, 75003 Paris",
        "happyHour": "17:00",
        "price": "4,60",
        "latitude": 48.8663881,
        "longitude": 2.3644915
    },
    {
        "name": "Indiana Caf\u00e9 - Richelieu Drouot",
        "address": "18-20 Boulevard Montmartre, 75009 Paris",
        "happyHour": "17:00",
        "price": "4,60",
        "latitude": 48.871724,
        "longitude": 2.3416094
    },
    {
        "name": "Indiana Caf\u00e9 - Ternes",
        "address": "237 Rue du Faubourg Saint-Honor\u00e9, 75008 Paris",
        "happyHour": "17:00",
        "price": "4,60",
        "latitude": 48.8774883,
        "longitude": 2.2986094
    },
    {
        "name": "Indiana Club - Tolbiac",
        "address": "74 Avenue de France, 75013 Paris",
        "happyHour": "17:00",
        "price": "4,60",
        "latitude": 48.828169,
        "longitude": 2.3793114
    },
    {
        "name": "Inside bar",
        "address": "14 Rue Claude Tillier, 75012 Paris",
        "price": "4,00",
        "latitude": 48.8481159,
        "longitude": 2.3880493
    },
    {
        "name": "IPN",
        "address": "23 Rue Mouffetard, 75005 Paris",
        "happyHour": "17:00",
        "price": "4,00",
        "latitude": 48.8441554,
        "longitude": 2.3493669
    },
    {
        "name": "James Hetfeeld's Pub",
        "address": "17 Boulevard Poissonni\u00e8re, 75002 Paris",
        "happyHour": "15:00",
        "price": "3,50",
        "latitude": 48.8708663,
        "longitude": 2.3468178
    },
    {
        "name": "J\u00e9susparadis",
        "address": "4 Passage du March\u00e9, 75010 Paris",
        "latitude": 48.8709641,
        "longitude": 2.3576585
    },
    {
        "name": "Kachette",
        "address": "60 Rue de l'Arbre Sec, 75001 Paris",
        "latitude": 48.86118,
        "longitude": 2.3425931
    },
    {
        "name": "Kanon",
        "address": "9 Rue du G\u00e9n\u00e9ral Lanrezac, 75017 Paris",
        "happyHour": "16:00",
        "price": "5,00",
        "latitude": 48.8764898,
        "longitude": 2.29412
    },
    {
        "name": "Kasha",
        "address": "9 Rue des R\u00e9collets, 75010 Paris",
        "happyHour": "19:00",
        "price": "5,00",
        "latitude": 48.874362,
        "longitude": 2.3619649
    },
    {
        "name": "Kenavo Bar",
        "address": "7 Rue de l'Isly, 75008 Paris",
        "happyHour": "15:00",
        "price": "5,00",
        "latitude": 48.8747518,
        "longitude": 2.3257357
    },
    {
        "name": "King George",
        "address": "46 Rue du Faubourg Montmartre, 75009 Paris",
        "happyHour": "17:30",
        "price": "4,50",
        "latitude": 48.8747339,
        "longitude": 2.341513
    },
    {
        "name": "L'Absurde Imposture",
        "address": "5 Rue Eug\u00e8ne Sue, 75018 Paris",
        "price": "5,00",
        "latitude": 48.8909799,
        "longitude": 2.3461001
    },
    {
        "name": "L'Adada Bar",
        "address": "15 Rue du Maine, 75014 Paris",
        "happyHour": "17:00",
        "price": "4,00",
        "latitude": 48.8405722,
        "longitude": 2.3223293
    },
    {
        "name": "L'Adresse",
        "address": "60 Rue de Turbigo, 75003 Paris",
        "happyHour": "17:00",
        "price": "4,30",
        "latitude": 48.8659168,
        "longitude": 2.3585083
    },
    {
        "name": "L'After",
        "address": "3 Rue de la Gait\u00e9, 75014 Paris",
        "happyHour": "15:00",
        "price": "5,50",
        "latitude": 48.8406615,
        "longitude": 2.3245098
    },
    {
        "name": "L'Ambre Bar",
        "address": "29 Rue Brunel, 75017 Paris",
        "latitude": 48.8785672,
        "longitude": 2.287698
    },
    {
        "name": "L'Arrosoir",
        "address": "75 Avenue Daumesnil, 75012 Paris",
        "happyHour": "18:00",
        "price": "5,50",
        "latitude": 48.8461419,
        "longitude": 2.3781143
    },
    {
        "name": "L'Atelier Isly",
        "address": "3 Rue de l'Isly, 75008 Paris",
        "happyHour": "17:00",
        "price": "5,00",
        "latitude": 48.8747394,
        "longitude": 2.3261127
    },
    {
        "name": "L'Atelier Montmartre",
        "address": "6 Rue Burq, 75018 Paris",
        "happyHour": "18:00",
        "price": "5,00",
        "latitude": 48.8858951,
        "longitude": 2.3361695
    },
    {
        "name": "L'Attrape-Coeurs",
        "address": "3 Rue Ramey, 75018 Paris",
        "price": "4,50",
        "latitude": 48.887105950000006,
        "longitude": 2.347286902319432
    },
    {
        "name": "L'Engrenage",
        "address": "8 Rue \u00c9tienne Marcel, 75002 Paris",
        "happyHour": "17:00",
        "price": "5,00",
        "latitude": 48.8639035,
        "longitude": 2.3488712
    },
    {
        "name": "L'Excuse Bar",
        "address": "4 Place Sainte-Opportune, 75001 Paris",
        "happyHour": "17:00",
        "price": "5,00",
        "latitude": 48.8595146,
        "longitude": 2.3473103
    },
    {
        "name": "L'Express de Paris",
        "address": "1 Rue Etienne Dolet, 75020 Paris",
        "happyHour": "15:00",
        "price": "2,50",
        "latitude": 48.867593,
        "longitude": 2.3832199
    },
    {
        "name": "L'H\u00e9lice Bar",
        "address": "50 Rue d'Orsel, 75018 Paris",
        "happyHour": "17:00",
        "price": "4,00",
        "latitude": 48.8835108,
        "longitude": 2.3413584
    },
    {
        "name": "L'Impr\u00e9vu Caf\u00e9",
        "address": "9 Rue Quincampoix, 75004 Paris",
        "happyHour": "18:00",
        "price": "5,00",
        "latitude": 48.8595037,
        "longitude": 2.3496709
    },
    {
        "name": "L'International",
        "address": "5/7 Rue Moret, 75011 Paris",
        "price": "3,50",
        "latitude": 48.8664145,
        "longitude": 2.3801689
    },
    {
        "name": "L'opium du peuple",
        "address": "10 Rue Montgolfier, 75003 Paris",
        "happyHour": "17:30",
        "price": "4,00",
        "latitude": 48.8660868,
        "longitude": 2.357164
    },
    {
        "name": "L'Orange M\u00e9canique",
        "address": "72 Bis Rue Jean-Pierre Timbaud, 75011 Paris",
        "price": "3,00",
        "latitude": 48.8679003,
        "longitude": 2.3774891
    },
    {
        "name": "L'Ours Bar",
        "address": "8 Rue de Paradis, 75010 Paris",
        "happyHour": "18:00",
        "latitude": 48.8745922,
        "longitude": 2.3545035
    },
    {
        "name": "La Bodega",
        "address": "12 Rue Descartes, 75005 Paris",
        "happyHour": "17:00",
        "price": "3,50",
        "latitude": 48.847065,
        "longitude": 2.3487292
    },
    {
        "name": "La Bonne D\u00e9cision",
        "address": "10 Rue Oberkampf, 75011 Paris",
        "price": "5,00",
        "latitude": 48.8630409,
        "longitude": 2.3685331
    },
    {
        "name": "La Bonne Excuse!",
        "address": "61 Rue Jean-Pierre Timbaud, 75011 Paris",
        "happyHour": "18:00",
        "price": "3,00",
        "latitude": 48.8670939,
        "longitude": 2.3749249
    },
    {
        "name": "La Cantine de Belleville",
        "address": "108 Boulevard de Belleville, 75020 Paris",
        "happyHour": "17:00",
        "price": "4,00",
        "latitude": 48.8708114,
        "longitude": 2.3787755
    },
    {
        "name": "La Com\u00e8te",
        "address": "19 Rue du Faubourg Montmartre, 75009 Paris",
        "happyHour": "17:00",
        "latitude": 48.8728391,
        "longitude": 2.3430116
    },
    {
        "name": "La Favorite",
        "address": "6 Rue de Rivoli, 75004 Paris",
        "happyHour": "18:00",
        "latitude": 48.8552753,
        "longitude": 2.3612782
    },
    {
        "name": "La Fronde",
        "address": "33 Rue des Archives, 75004 Paris",
        "happyHour": "17:00",
        "price": "5,50",
        "latitude": 48.8595055,
        "longitude": 2.356156
    },
    {
        "name": "La Goutti\u00e8re",
        "address": "96 Avenue Parmentier, 75011 Paris",
        "happyHour": "17:00",
        "price": "4,00",
        "latitude": 48.8660764,
        "longitude": 2.3741076
    },
    {
        "name": "La Loutre Bar",
        "address": "46 Rue Jean-Pierre Timbaud, 75011 Paris",
        "happyHour": "18:00",
        "latitude": 48.8662989,
        "longitude": 2.3722938
    },
    {
        "name": "La Lucha Libre",
        "address": "10 Rue de la Montagne Sainte Genevi\u00e8ve, 75005 Paris",
        "price": "3,90",
        "latitude": 48.8490316,
        "longitude": 2.3485815
    },
    {
        "name": "La M\u00e9nagerie",
        "address": "90 Boulevard de l'H\u00f4pital, 75013 Paris",
        "happyHour": "16:00",
        "price": "3,50",
        "latitude": 48.836858,
        "longitude": 2.3591724
    },
    {
        "name": "La Popina",
        "address": "88 Rue Saint-Maur, 75011 Paris",
        "happyHour": "17:30",
        "price": "4,00",
        "latitude": 48.8649228,
        "longitude": 2.3779275
    },
    {
        "name": "La Poudri\u00e8re",
        "address": "41 Rue Servan, 75011 Paris",
        "happyHour": "18:00",
        "price": "5,50",
        "latitude": 48.8616924,
        "longitude": 2.3824216
    },
    {
        "name": "Le 10 Bar",
        "address": "10 Rue de l'Od\u00e9on, 75006 Paris",
        "happyHour": "18:00",
        "latitude": 48.8510462,
        "longitude": 2.3386066
    },
    {
        "name": "Le 48",
        "address": "48 Rue du Montparnasse, 75014 Paris",
        "happyHour": "17:00",
        "latitude": 48.8423603,
        "longitude": 2.3256558
    },
    {
        "name": "Le 49.3",
        "address": "3 Cit\u00e9 de Phalsbourg, 75011 Paris",
        "price": "4,50",
        "latitude": 48.8555712,
        "longitude": 2.3847513
    },
    {
        "name": "Le 9b",
        "address": "68 Boulevard de la Villette, 75019 Paris",
        "happyHour": "18:00",
        "price": "3,50",
        "latitude": 48.8754021,
        "longitude": 2.3736015
    },
    {
        "name": "Le Bar Belge",
        "address": "75 Avenue de Saint-Ouen, 75017 Paris",
        "happyHour": "18:00",
        "price": "4,50",
        "latitude": 48.8923883,
        "longitude": 2.3270637
    },
    {
        "name": "Le Barbiche",
        "address": "11 Rue Pierre Fontaine, 75009 Paris",
        "price": "6,00",
        "latitude": 48.8812018,
        "longitude": 2.3343854
    },
    {
        "name": "Le Barbylone",
        "address": "112 bis Rue Marcadet, 75018 Paris",
        "price": "5,00",
        "latitude": 48.8913112,
        "longitude": 2.3423618
    },
    {
        "name": "Le Barlone",
        "address": "13 Rue Berg\u00e8re, 75009 Paris",
        "price": "5,50",
        "latitude": 48.8721791,
        "longitude": 2.3463207
    },
    {
        "name": "Le B\u00e9b\u00e9",
        "address": "8 Rue Pierre Semard, 75009 Paris",
        "happyHour": "18:30",
        "price": "5,00",
        "latitude": 48.8773522,
        "longitude": 2.3469944
    },
    {
        "name": "Le Beho",
        "address": "8 Place Sainte-Opportune, 75001 Paris",
        "happyHour": "15:00",
        "price": "4,00",
        "latitude": 48.8596448,
        "longitude": 2.3474306
    },
    {
        "name": "Le Biscornu - Op\u00e9ra",
        "address": "4 Rue Daunou, 75002 Paris",
        "happyHour": "17:00",
        "price": "4,50",
        "latitude": 48.8692807,
        "longitude": 2.3323109
    },
    {
        "name": "Le Bistrot Pop",
        "address": "3 Avenue de la R\u00e9publique, 75011 Paris",
        "happyHour": "16:00",
        "price": "3,90",
        "latitude": 48.8667827,
        "longitude": 2.3672866
    },
    {
        "name": "Le Cactus",
        "address": "28 Rue des Archives, 75004 Paris",
        "happyHour": "17:00",
        "price": "4,50",
        "latitude": 48.8582653,
        "longitude": 2.3551467
    },
    {
        "name": "Le Cavern",
        "address": "21 Rue Dauphine, 75006 Paris",
        "happyHour": "16:00",
        "price": "4,00",
        "latitude": 48.8551994,
        "longitude": 2.3398125
    },
    {
        "name": "Le Certa",
        "address": "5 Rue de l'Isly, 75008 Paris",
        "happyHour": "16:00",
        "price": "5,00",
        "latitude": 48.8747342,
        "longitude": 2.3259425
    },
    {
        "name": "Le Chantier Interdit",
        "address": "1 Rue de Lappe, 75011 Paris",
        "happyHour": "17:00",
        "price": "5,00",
        "latitude": 48.8542721,
        "longitude": 2.3716031
    },
    {
        "name": "Le Chouff'Bar",
        "address": "16 Rue du Pot de Fer, 75005 Paris",
        "happyHour": "16:00",
        "price": "5,00",
        "latitude": 48.842986,
        "longitude": 2.3486829
    },
    {
        "name": "Le Comptoir Vouill\u00e9",
        "address": "13 Rue de Vouill\u00e9, 75015 Paris",
        "happyHour": "15:00",
        "price": "4,50",
        "latitude": 48.8350897,
        "longitude": 2.3042236
    },
    {
        "name": "Le Crocodile",
        "address": "6 Rue Royer-Collard, 75005 Paris",
        "latitude": 48.8457328,
        "longitude": 2.3421373
    },
    {
        "name": "Dream Caf\u00e9 - Montparnasse",
        "address": "39 Boulevard du Montparnasse, 75006 Paris",
        "happyHour": "17:00",
        "price": "3,50",
        "latitude": 48.8419005,
        "longitude": 2.3300746
    },
    {
        "name": "Le Falstaff",
        "address": "42 Rue du Montparnasse, 75014 Paris",
        "happyHour": "15:00",
        "price": "6,00",
        "latitude": 48.8428516,
        "longitude": 2.3261158
    },
    {
        "name": "Le Gentleman Pub",
        "address": "3bis Rue Hautefeuille, 75006 Paris",
        "happyHour": "17:00",
        "price": "4,00",
        "latitude": 48.8511753,
        "longitude": 2.3415635
    },
    {
        "name": "Le Gloster",
        "address": "111 Avenue de la Bourdonnais, 75007 Paris",
        "latitude": 48.8550134,
        "longitude": 2.3044934
    },
    {
        "name": "Le Gribouille",
        "address": "44 Rue de Rivoli, 75004 Paris",
        "happyHour": "17:00",
        "price": "5,00",
        "latitude": 48.8575053,
        "longitude": 2.3513924
    },
    {
        "name": "Le HasBeen",
        "address": "218 Rue Saint-Maur, 75010 Paris",
        "price": "3,50",
        "latitude": 48.8728731,
        "longitude": 2.3710083
    },
    {
        "name": "Le Mademoiselle",
        "address": "14 Avenue Philippe-Auguste, 75011 Paris",
        "happyHour": "16:00",
        "latitude": 48.8501952,
        "longitude": 2.3950114
    },
    {
        "name": "Le Marilyn",
        "address": "122 Rue Oberkampf, 75011 Paris",
        "happyHour": "17:30",
        "price": "4,00",
        "latitude": 48.8661552,
        "longitude": 2.379764
    },
    {
        "name": "Le MayDay",
        "address": "1 Rue Damr\u00e9mont, 75018 Paris",
        "price": "5,00",
        "latitude": 48.8872789,
        "longitude": 2.3324996
    },
    {
        "name": "Le Melocoton Bar",
        "address": "10 Rue Descartes, 75005 Paris",
        "happyHour": "17:00",
        "price": "3,50",
        "latitude": 48.8470946,
        "longitude": 2.3486775
    },
    {
        "name": "Le N'Importe Quoi",
        "address": "16 Rue du Roule, 75001 Paris",
        "happyHour": "18:00",
        "price": "4,50",
        "latitude": 48.8607852,
        "longitude": 2.343853
    },
    {
        "name": "Le NordMarais",
        "address": "39 Rue Notre Dame de Nazareth, 75003 Paris",
        "price": "4,00",
        "latitude": 48.8674734,
        "longitude": 2.3577982
    },
    {
        "name": "Le Pantalon",
        "address": "7 Rue Royer-Collard, 75005 Paris",
        "happyHour": "17:30",
        "price": "3,00",
        "latitude": 48.8457266,
        "longitude": 2.3419679
    },
    {
        "name": "Le Petit Monaco",
        "address": "28 Rue de Picardie, 75003 Paris",
        "happyHour": "17:00",
        "latitude": 48.8642103,
        "longitude": 2.36331
    },
    {
        "name": "Le Piment Caf\u00e9",
        "address": "15 Rue de S\u00e9vign\u00e9, 75004 Paris",
        "happyHour": "17:00",
        "price": "3,80",
        "latitude": 48.8551854,
        "longitude": 2.3617444
    },
    {
        "name": "Le Puits Montorgueil",
        "address": "17 Rue Marie Stuart, 75002 Paris",
        "happyHour": "17:00",
        "latitude": 48.8650342,
        "longitude": 2.3473591
    },
    {
        "name": "Le Quid",
        "address": "12 Rue de la Grande Truanderie, 75001 Paris",
        "happyHour": "17:00",
        "price": "4,50",
        "latitude": 48.8628225,
        "longitude": 2.3491101
    },
    {
        "name": "Le Renard Bar",
        "address": "38 Rue de Sambre-et-Meuse, 75010 Paris",
        "happyHour": "18:00",
        "latitude": 48.8745484,
        "longitude": 2.3727934
    },
    {
        "name": "Le Roi de Pique",
        "address": "126 Rue du Temple, 75003 Paris",
        "happyHour": "18:00",
        "price": "5,00",
        "latitude": 48.8634173,
        "longitude": 2.3583914
    },
    {
        "name": "Le Sancerre",
        "address": "87 Rue des Archives, 75003 Paris",
        "happyHour": "17:00",
        "price": "5,00",
        "latitude": 48.8635859,
        "longitude": 2.3608756
    },
    {
        "name": "Le Social Bar",
        "address": "25 Rue Villiot, 75012 Paris",
        "happyHour": "17:00",
        "price": "5,00",
        "latitude": 48.8418037,
        "longitude": 2.3755198
    },
    {
        "name": "Le Street Art",
        "address": "37 Rue de Lappe, 75011 Paris",
        "happyHour": "17:00",
        "price": "4,50",
        "latitude": 48.853387,
        "longitude": 2.3734188
    },
    {
        "name": "Le Tagada Bar",
        "address": "40 Rue des Trois Fr\u00e8res, 75018 Paris",
        "happyHour": "18:00",
        "price": "4,00",
        "latitude": 48.88524,
        "longitude": 2.3396729
    },
    {
        "name": "Le Tiny Caf\u00e9",
        "address": "11 Rue Daval, 75011 Paris",
        "happyHour": "16:00",
        "price": "4,00",
        "latitude": 48.8551021,
        "longitude": 2.370515
    },
    {
        "name": "Le Trente Neuf",
        "address": "39 Rue Beaubourg, 75003 Paris",
        "happyHour": "16:00",
        "price": "5,00",
        "latitude": 48.8621296,
        "longitude": 2.3538264
    },
    {
        "name": "Le Village",
        "address": "56 Rue de la Montagne Sainte Genevi\u00e8ve, 75005 Paris",
        "happyHour": "Happy hour en cours jusqu'\u00e0 00:00",
        "price": "3,90",
        "latitude": 48.8472876,
        "longitude": 2.3482246
    },
    {
        "name": "Les An\u00e9mones",
        "address": "41 Avenue de la R\u00e9publique, 75011 Paris",
        "happyHour": "16:00",
        "price": "4,00",
        "latitude": 48.8653384,
        "longitude": 2.3748969
    },
    {
        "name": "Les Berthom",
        "address": "35 Boulevard Voltaire, 75011 Paris",
        "happyHour": "17:00",
        "price": "5,00",
        "latitude": 48.8645659,
        "longitude": 2.3690682
    },
    {
        "name": "Les Cariatides",
        "address": "3 Rue de Palestro, 75002 Paris",
        "happyHour": "18:00",
        "price": "5,00",
        "latitude": 48.8645122,
        "longitude": 2.3509359
    },
    {
        "name": "Les Minimes",
        "address": "36 Rue de Turenne, 75003 Paris",
        "happyHour": "16:00",
        "price": "3,00",
        "latitude": 48.8575369,
        "longitude": 2.3645659
    },
    {
        "name": "Little Temple Bar",
        "address": "12 Rue Princesse, 75006 Paris",
        "happyHour": "17:00",
        "price": "5,00",
        "latitude": 48.8522346,
        "longitude": 2.3344747
    },
    {
        "name": "Lizard Lounge",
        "address": "18 Rue du Bourg Tibourg, 75004 Paris",
        "happyHour": "17:00",
        "price": "5,00",
        "latitude": 48.8574108,
        "longitude": 2.3562658
    },
    {
        "name": "Loufoque",
        "address": "57 Rue Galande, 75005 Paris",
        "happyHour": "17:00",
        "price": "5,00",
        "latitude": 48.8516494,
        "longitude": 2.3469102
    },
    {
        "name": "Loup",
        "address": "44 Rue du Louvre, 75001 Paris",
        "happyHour": "17:00",
        "price": "5,00",
        "latitude": 48.8639344,
        "longitude": 2.342597
    },
    {
        "name": "Lush Bar",
        "address": "16 Rue des Dames, 75017 Paris",
        "happyHour": "17:30",
        "price": "5,50",
        "latitude": 48.8851646,
        "longitude": 2.3252609
    },
    {
        "name": "Mad Maker Pub",
        "address": "22 Rue Cujas, 75005 Paris",
        "happyHour": "18:00",
        "price": "4,00",
        "latitude": 48.8482658,
        "longitude": 2.3417575
    },
    {
        "name": "Madame Pervenche",
        "address": "9 Rue Greneta, 75003 Paris",
        "price": "4,00",
        "latitude": 48.8653031,
        "longitude": 2.3525694
    },
    {
        "name": "Magasin",
        "address": "189 Rue Saint-Maur, 75010 Paris",
        "price": "4,00",
        "latitude": 48.871428,
        "longitude": 2.3721558
    },
    {
        "name": "MayFair Bar",
        "address": "15 Rue Pierre Fontaine, 75009 Paris",
        "price": "5,50",
        "latitude": 48.8813739,
        "longitude": 2.3342489
    },
    {
        "name": "Moncoeur Belleville",
        "address": "1 Rue des Envierges, 75020 Paris",
        "happyHour": "16:00",
        "price": "4,50",
        "latitude": 48.8715903,
        "longitude": 2.3858703
    },
    {
        "name": "MONK La Taverne de Cluny",
        "address": "51 Rue de la Harpe, 75005 Paris",
        "happyHour": "16:00",
        "price": "5,50",
        "latitude": 48.8515956,
        "longitude": 2.3438739
    },
    {
        "name": "Monsieur Henri",
        "address": "8 Rue de Picardie, 75003 Paris",
        "happyHour": "18:00",
        "latitude": 48.8634159,
        "longitude": 2.3623801
    },
    {
        "name": "Monsieur le Zinc - Bonne Nouvelle",
        "address": "16 Rue de Mazagran, 75010 Paris",
        "price": "4,00",
        "latitude": 48.8707385,
        "longitude": 2.3518974
    },
    {
        "name": "Monsieur le Zinc - Od\u00e9on",
        "address": "13 Rue Monsieur le Prince, 75006 Paris",
        "price": "4,00",
        "latitude": 48.8513186,
        "longitude": 2.3393267
    },
    {
        "name": "Monsieur le Zinc - Pigalle",
        "address": "46 Rue Jean-Baptiste Pigalle, 75009 Paris",
        "price": "4,00",
        "latitude": 48.8802099,
        "longitude": 2.334823
    },
    {
        "name": "New York Caf\u00e9",
        "address": "68 Rue Mouffetard, 75005 Paris",
        "happyHour": "17:00",
        "price": "5,00",
        "latitude": 48.8427774,
        "longitude": 2.3496208
    },
    {
        "name": "Ni une ni deux",
        "address": "12 Rue Dauphine, 75006 Paris",
        "happyHour": "17:00",
        "price": "4,00",
        "latitude": 48.8557013,
        "longitude": 2.3400774
    },
    {
        "name": "\u00d4 P\u2019ti Paris",
        "address": "8 Cour des Petites \u00c9curies, 75010 Paris",
        "happyHour": "15:00",
        "price": "3,00",
        "latitude": 48.8725628,
        "longitude": 2.3531759
    },
    {
        "name": "O'Sullivans - Franklin D Roosevelt",
        "address": "63 Avenue Franklin Delano Roosevelt, 75008 Paris",
        "happyHour": "17:00",
        "price": "6,00",
        "latitude": 48.87186,
        "longitude": 2.309885
    },
    {
        "name": "On\u00ef",
        "address": "3 Rue Crespin du Gast, 75011 Paris",
        "price": "4,00",
        "latitude": 48.8663376,
        "longitude": 2.3815728
    },
    {
        "name": "Pub 27",
        "address": "27 Rue de Rome, 75008 Paris",
        "happyHour": "16:00",
        "price": "6,00",
        "latitude": 48.8765997,
        "longitude": 2.3232513
    },
    {
        "name": "Pub Le Klein",
        "address": "36 Rue du Roi de Sicile, 75004 Paris",
        "happyHour": "16:00",
        "price": "3,90",
        "latitude": 48.8563599,
        "longitude": 2.3579757
    },
    {
        "name": "RAIDD Bar",
        "address": "23 Rue du Temple, 75004 Paris",
        "happyHour": "18:00",
        "price": "4,30",
        "latitude": 48.8588973,
        "longitude": 2.3535334
    },
    {
        "name": "Rhinoceros Bar",
        "address": "35 Rue de Lourmel, 75015 Paris",
        "happyHour": "16:00",
        "price": "4,20",
        "latitude": 48.8481732,
        "longitude": 2.2904155
    },
    {
        "name": "Roy's Pub",
        "address": "73 Rue Blanche, 75009 Paris",
        "happyHour": "17:30",
        "latitude": 48.8827011,
        "longitude": 2.3319511
    },
    {
        "name": "Rush Bar",
        "address": "32 Rue Saint-S\u00e9bastien, 75011 Paris",
        "happyHour": "16:00",
        "price": "5,00",
        "latitude": 48.8613595,
        "longitude": 2.3702323
    },
    {
        "name": "Salsero",
        "address": "9 Rue du Petit Pont, 75005 Paris",
        "happyHour": "15:00",
        "latitude": 48.8525,
        "longitude": 2.3466096
    },
    {
        "name": "Sans G\u00eane Restaurant",
        "address": "112 Rue Legendre, 75017 Paris",
        "happyHour": "17:00",
        "price": "5,00",
        "latitude": 48.8881657,
        "longitude": 2.3212287
    },
    {
        "name": "Shannon Pub",
        "address": "23 Rue Br\u00e9a, 75006 Paris",
        "happyHour": "18:00",
        "price": "4,50",
        "latitude": 48.8425906,
        "longitude": 2.3298372
    },
    {
        "name": "Sly Bar",
        "address": "22 Rue des Lombards, 75004 Paris",
        "happyHour": "16:00",
        "price": "4,00",
        "latitude": 48.8593452,
        "longitude": 2.3493535
    },
    {
        "name": "Sputnik",
        "address": "16 Rue de la Butte aux Cailles, 75013 Paris",
        "happyHour": "18:00",
        "price": "3,00",
        "latitude": 48.8279315,
        "longitude": 2.3509876
    },
    {
        "name": "Tata Monique",
        "address": "18 Rue Laplace, 75005 Paris",
        "happyHour": "18:00",
        "price": "4,00",
        "latitude": 48.8474349,
        "longitude": 2.3471526
    },
    {
        "name": "Tennessee - Paris",
        "address": "12 Rue Andr\u00e9 Mazet, 75006 Paris",
        "happyHour": "16:00",
        "price": "4,00",
        "latitude": 48.8537855,
        "longitude": 2.3390653
    },
    {
        "name": "The 46 Bar",
        "address": "46 Rue Ren\u00e9 Boulanger, 75010 Paris",
        "happyHour": "18:00",
        "latitude": 48.8685318,
        "longitude": 2.3602988
    },
    {
        "name": "The Cork and Cavan",
        "address": "70 Quai de Jemmapes, 75010 Paris",
        "happyHour": "15:00",
        "price": "6,00",
        "latitude": 48.871328,
        "longitude": 2.3657814
    },
    {
        "name": "The French Flair",
        "address": "75 Bis Boulevard de Clichy, 75009 Paris",
        "happyHour": "17:00",
        "price": "4,00",
        "latitude": 48.8843485,
        "longitude": 2.3297102
    },
    {
        "name": "The Frog & Princess",
        "address": "9 Rue Princesse, 75006 Paris",
        "happyHour": "17:00",
        "latitude": 48.8522786,
        "longitude": 2.3345451
    },
    {
        "name": "The Frog & Underground",
        "address": "176 Rue Montmartre, 75002 Paris",
        "happyHour": "17:00",
        "latitude": 48.8701527,
        "longitude": 2.3427229
    },
    {
        "name": "The Frog at Bercy Village",
        "address": "25 Cour Saint-Emilion, 75012 Paris",
        "happyHour": "17:00",
        "latitude": 48.8329642,
        "longitude": 2.3862318
    },
    {
        "name": "The Great Canadian Pub",
        "address": "25 Quai des Grands Augustins, 75006 Paris",
        "happyHour": "16:00",
        "price": "5,00",
        "latitude": 48.8542651,
        "longitude": 2.3429193
    },
    {
        "name": "The Harp Bar",
        "address": "118 Boulevard de Clichy, 75018 Paris",
        "happyHour": "17:00",
        "price": "5,00",
        "latitude": 48.8845473,
        "longitude": 2.3303214
    },
    {
        "name": "The Hideout - Gare du Nord",
        "address": "8 Boulevard de Denain, 75010 Paris",
        "happyHour": "18:00",
        "price": "4,50",
        "latitude": 48.8793095,
        "longitude": 2.3546327
    },
    {
        "name": "The Highlander",
        "address": "8 Rue de Nevers, 75006 Paris",
        "happyHour": "17:00",
        "price": "5,00",
        "latitude": 48.8559771,
        "longitude": 2.339766
    },
    {
        "name": "The Moose",
        "address": "16 Rue des Quatre Vents, 75006 Paris",
        "happyHour": "16:00",
        "price": "5,00",
        "latitude": 48.8517886,
        "longitude": 2.3376896
    },
    {
        "name": "The New Born",
        "address": "194 Rue de la Croix Nivert, 75015 Paris",
        "happyHour": "17:00",
        "price": "4,50",
        "latitude": 48.838659,
        "longitude": 2.2893441
    },
    {
        "name": "The New Margen's Pub",
        "address": "65 Rue Mouffetard, 75005 Paris",
        "happyHour": "Happy hour en cours jusqu'\u00e0 22:00",
        "price": "4,00",
        "latitude": 48.8424731,
        "longitude": 2.3497976
    },
    {
        "name": "The Place to...",
        "address": "47 Avenue de Wagram, 75017 Paris",
        "happyHour": "17:00",
        "price": "6,50",
        "latitude": 48.877563,
        "longitude": 2.2975158
    },
    {
        "name": "The Violon Dingue",
        "address": "46 Rue de la Montagne Sainte Genevi\u00e8ve, 75005 Paris",
        "happyHour": "19:00",
        "latitude": 48.8476222,
        "longitude": 2.3484593
    },
    {
        "name": "Thirsty Mad Cat",
        "address": "120 Rue Montmartre, 75002 Paris",
        "happyHour": "17:00",
        "price": "4,00",
        "latitude": 48.8701527,
        "longitude": 2.3427229
    },
    {
        "name": "Vieux L\u00e9on",
        "address": "18 Rue de la Grande Truanderie, 75001 Paris",
        "happyHour": "19:00",
        "latitude": 48.862902,
        "longitude": 2.3488808
    },
    {
        "name": "Who's",
        "address": "14 Rue Saint-Merri, 75004 Paris",
        "happyHour": "17:00",
        "latitude": 48.8594119,
        "longitude": 2.3528988
    },
    {
        "name": "WOS Bar",
        "address": "184 Rue Saint-Jacques, 75005 Paris",
        "happyHour": "17:00",
        "price": "5,00",
        "latitude": 48.8462353,
        "longitude": 2.3429825
    },
    {
        "name": "Zoco Bar",
        "address": "22 Avenue Claude Vellefaux, 75010 Paris",
        "happyHour": "17:00",
        "price": "3,50",
        "latitude": 48.8734133,
        "longitude": 2.3703318
    },
    {
        "name": "A La Tour Eiffel",
        "address": "96 Rue du Commerce, 75015 Paris 15e Arrondissement",
        "happyHour": "17:00",
        "price": "5,00",
        "latitude": 48.8438242,
        "longitude": 2.2930064
    },
    {
        "name": "Au Bureau - 15e",
        "address": "1 Place \u00c9tienne Pernet, 75015 Paris 15e Arrondissement",
        "happyHour": "17:00",
        "price": "3,40",
        "latitude": 48.8436419,
        "longitude": 2.2927063
    },
    {
        "name": "Comptoir Moderne",
        "address": "26 n Rue de la Croix Nivert, 75015 Paris 15e Arrondissement",
        "happyHour": "17:00",
        "price": "3,90",
        "latitude": 48.8445764,
        "longitude": 2.2968405
    },
    {
        "name": "L'Atelier Suffren",
        "address": "110 Avenue de Suffren, 75015 Paris 15e Arrondissement",
        "happyHour": "Happy hour en cours jusqu'\u00e0 22:00",
        "price": "3,00",
        "latitude": 48.8491265,
        "longitude": 2.3038627
    },
    {
        "name": "Au Soleil de la Butte",
        "address": "32 Rue Muller, 75018 Paris 18e Arrondissement",
        "happyHour": "17:30",
        "price": "5,00",
        "latitude": 48.8865041,
        "longitude": 2.3453508
    },
    {
        "name": "Chez Papa - 15e",
        "address": "101 Rue de la Croix Nivert, 75015 Paris 15e Arrondissement",
        "price": "3,90",
        "latitude": 48.8426834,
        "longitude": 2.2949914
    },
    {
        "name": "La Bascule",
        "address": "24 Rue Durantin, 75018 Paris 18e Arrondissement",
        "happyHour": "17:00",
        "price": "5,00",
        "latitude": 48.88631665,
        "longitude": 2.336517508567044
    },
    {
        "name": "Au D\u00e9pot",
        "address": "53 Boulevard de Belleville, 75011 Paris 11e Arrondissement",
        "happyHour": "15:00",
        "price": "2,50",
        "latitude": 48.8690037,
        "longitude": 2.3803916
    },
    {
        "name": "Arena Caf\u00e9",
        "address": "29 Rue Saint-Denis, 75001 Paris 1er Arrondissement",
        "happyHour": "16:00",
        "price": "3,90",
        "latitude": 48.8598417,
        "longitude": 2.3479331
    },
    {
        "name": "L'Impr\u00e9vu",
        "address": "30 Boulevard de Bonne Nouvelle, 75010 Paris 10e Arrondissement",
        "happyHour": "18:00",
        "price": "4,50",
        "latitude": 48.8706097,
        "longitude": 2.3498515
    },
    {
        "name": "L'Instant Bar",
        "address": "17 Rue Custine, 75018 Paris 18e Arrondissement",
        "happyHour": "15:00",
        "price": "4,00",
        "latitude": 48.88808735,
        "longitude": 2.3481147056630762
    },
    {
        "name": "Moxy",
        "address": "34 Rue Saint-Sabin, 75011 Paris 11e Arrondissement",
        "happyHour": "17:00",
        "price": "5,00",
        "latitude": 48.857591,
        "longitude": 2.3697745
    },
    {
        "name": "Bomby's Caf\u00e9",
        "address": "9 Place d'Italie, 75013 Paris 13e Arrondissement",
        "happyHour": "17:00",
        "price": "6,00",
        "latitude": 48.8316832,
        "longitude": 2.3568683
    },
    {
        "name": "Au Caf\u00e9 Jaby",
        "address": "77 Rue Lecourbe, 75015 Paris 15e Arrondissement",
        "happyHour": "16:00",
        "price": "5,00",
        "latitude": 48.8432426,
        "longitude": 2.3051413
    },
    {
        "name": "James Hetfeeld's - 18e",
        "address": "118 Boulevard de Clichy, 75018 Paris 18e Arrondissement",
        "happyHour": "16:00",
        "price": "5,50",
        "latitude": 48.8845473,
        "longitude": 2.3303214
    },
    {
        "name": "Au P'tit Gorgeon",
        "address": "76 Rue de Richelieu, 75002 Paris 2e Arrondissement",
        "happyHour": "18:00",
        "price": "5,00",
        "latitude": 48.8693707,
        "longitude": 2.3388708
    }
]